fuente,source_record_id,fecha_hora,fecha,hora,aeropuerto_icao,aeropuerto_nombre,ciudad,provincia,fase_vuelo,descripcion,tipo_incidente,categoria_incidente,aeronave_modelo,aeronave_matricula,tipo_aeronave,condicion_meteorologica,condicion_luz,visibilidad_millas,viento_kt,latitud,longitud,lesionados,fatalidades,nivel_riesgo
JST,JST-SADF-20241218,2024-12-18T13:18:00,2024-12-18,1318,SADF,San Fernando,San Fernando,Buenos Aires,Aterrizaje,Accidente de la aeronave Bombardier Challenger 300 en el Aeropuerto Internacional de San Fernando durante la fase final del vuelo.,Accidente en aterrizaje,Operacion,Bombardier Challenger 300,LV-GOK,Ejecutiva,VMC,Dia,10,8,-34.4539,-58.5896,0,2,Critico
JST,JST-ESPERANZA-20240719,2024-07-19T16:10:00,2024-07-19,1610,SAAV,Sauce Viejo,Esperanza,Santa Fe,Maniobra a baja altura,Accidente de aeronave Sonerai II LS durante vuelo recreativo con maniobra acrobatica a baja altura e impacto contra el terreno.,Impacto contra el terreno,Operacion,Sonerai II LS,LV-X393,Experimental,VMC,Dia,10,6,-31.7117,-60.8117,0,2,Critico
JST,JST-GODOY-20231128,2023-11-28T11:20:00,2023-11-28,1120,SAME,El Plumerillo,Godoy Cruz,Mendoza,Ascenso inicial,Perdida de potencia por falla de motor despues del despegue y aterrizaje de emergencia en zona urbana de Godoy Cruz.,Falla de motor,Tecnico,Tecnam P2002 Sierra,LV-S077,Instruccion,VMC,Dia,10,5,-32.8317,-68.7929,0,0,Alto
MEDIA,MEDIA-AEP-EZE-20260216,2026-02-16T17:20:00,2026-02-16,1720,SABE,Aeroparque Jorge Newbery,Ciudad de Buenos Aires,CABA,Ascenso inicial,Vuelo comercial que despego de Aeroparque y debio desviarse a Ezeiza por un desperfecto en un motor poco despues del despegue.,Falla de motor,Operacion,B737-800,,Comercial,VMC,Dia,10,12,-34.5592,-58.4156,0,0,Alto
MEDIA,MEDIA-AEP-EZE-20260312,2026-03-12T17:20:00,2026-03-12,1720,SABE,Aeroparque Jorge Newbery,Ciudad de Buenos Aires,CABA,Ascenso inicial,Aeronave de Aerolineas Argentinas debio aterrizar de emergencia en Ezeiza tras impacto o desperfecto detectado en un motor luego de despegar desde Aeroparque.,Impacto en motor,Fauna,B737-800,,Comercial,VMC,Dia,10,14,-34.5592,-58.4156,0,0,Alto
MEDIA,MEDIA-SAZR-20260301,2026-03-01T14:25:00,2026-03-01,1425,SAZR,Santa Rosa,Santa Rosa,La Pampa,Aterrizaje,La aeronave se desvio lateralmente durante la carrera de aterrizaje en pista humeda y requirio intervencion operativa.,Excursion de pista,Pista,B737-800,LV-FPS,Comercial,Lluvia,Dia,5,18,-36.5883,-64.2757,0,0,Alto
