fuente,source_record_id,fecha_hora,fecha,hora,aeropuerto_icao,aeropuerto_nombre,ciudad,provincia,fase_vuelo,descripcion,tipo_incidente,categoria_incidente,aeronave_modelo,aeronave_matricula,tipo_aeronave,condicion_meteorologica,condicion_luz,visibilidad_millas,viento_kt,latitud,longitud,lesionados,fatalidades,nivel_riesgo
JST,JST-RAW-89927439-23,2020-05-06T01:45:00,2020-05-06,0145,,,Esquel,Chubut,Aterrizaje,"Accidente | ARC (Abnormal runway contact), F-POST (Fire/smoke Post-Impact), CFIT (Controlled fligth into or toward terrain) | Non-Commercial Operations / Relocation / Delivery | Esquel, Chubut","ARC (Abnormal runway contact), F-POST (Fire/smoke Post-Impact), CFIT (Controlled fligth into or toward terrain)",Pista,,LV-BXU,,,,,,-42.903889,-71.135556,0,0,Critico
JST,JST-RAW-34614024-20,2020-05-27T16:15:00,2020-05-27,1615,,,San Martín,Mendoza,En vuelo,"Incidente | SCF-NP (System/component failure or malfunction (No Powerplant) | Non-Commercial Operations / Flight Training/Instructional / Dual | San Martín, Mendoza",SCF-NP (System/component failure or malfunction (No Powerplant),Tecnico,,LV-AOX,,,,,,-25.737222,-54.373333,0,0,Alto
JST,JST-RAW-34847138-20,2020-05-28T16:05:00,2020-05-28,1605,,,Añatuya,Santiago Del Estero,Ascenso inicial,"Incidente | SCF-PP (Powerplant failure or malfunction) | Specialised Operations / Aerial Work / Other | Añatuya, Santiago Del Estero",SCF-PP (Powerplant failure or malfunction),Tecnico,,LV-LMS,,,,,,-28.476944,-65.845,0,0,Alto
JST,JST-RAW-35562234-20,2020-06-01T16:50:00,2020-06-01,1650,,,Marcos Juarez,Cordoba,En vuelo,"Incidente | SCF-NP (System/component failure or malfunction (No Powerplant) | Unknown / Unknown / Se desconoce | Marcos Juarez, Cordoba",SCF-NP (System/component failure or malfunction (No Powerplant),Tecnico,,LV-HFZ,,,,,,-31.283333,-64.466667,0,0,Alto
JST,JST-RAW-36068137-2020,2020-06-03T17:00:00,2020-06-03,1700,,,Resistencia (SARE),Chaco,En vuelo,"Incidente | SCF-NP (System/component failure or malfunction (No Powerplant) | Specialised Operations / Aerial Work / Other | Resistencia (SARE), Chaco",SCF-NP (System/component failure or malfunction (No Powerplant),Tecnico,,LV-YIC,,,,,,-27.45,-59.056111,0,0,Alto
JST,JST-RAW-44727485-2020,2020-06-17T18:30:00,2020-06-17,1830,,,Brasilia,Brasilia,Ascenso inicial,"Incidente grave | SCF-PP (Powerplant failure or malfunction) | Non-Commercial Operations / Flight Training/Instructional / Acrobatics | Brasilia, Brasilia",SCF-PP (Powerplant failure or malfunction),Tecnico,,PP-GLX,,,,,,-25.399167,-49.39,0,0,Alto
JST,JST-RAW-57834817-2020,2020-08-05T13:33:00,2020-08-05,1333,,,Rancho San Isidro,Guanajuato,Maniobra a baja altura,"Accidente | Specialised Operations / Aerial Work / Agricultural | Rancho San Isidro, Guanajuato",Accidente,Operacion,,XB-SEY,,,,,,-34.654167,-58.643889,0,0,Alto
JST,JST-RAW-53682470-2020,2020-08-14T11:00:00,2020-08-14,1100,,,General Rodríguez,Buenos Aires,Aterrizaje,"Accidente | USOS (Undershoot/overshoot) | Non-Commercial Operations / Relocation / Positioning | General Rodríguez, Buenos Aires",USOS (Undershoot/overshoot),Pista,,LV-FEX,,,,,,-34.680278,-59.035833,0,0,Alto
JST,JST-RAW-55235134-2020,2020-08-15T15:40:00,2020-08-15,1540,,,Estancia Cerro Sólo,Cordoba,Ascenso inicial,"Incidente | SCF-PP (Powerplant failure or malfunction) | Non-Commercial Operations / Bussiness / Bussiness | Estancia Cerro Sólo, Cordoba",SCF-PP (Powerplant failure or malfunction),Tecnico,,LV-ZXR,,,,,,-30.777222,-62.977778,0,0,Alto
JST,JST-RAW-72771474-22,2020-08-26T17:10:00,2020-08-26,1710,,,Guaratinguetá,Sao Pablo,Aterrizaje,"Accidente | ARC (Abnormal runway contact), RE (Runway Excursion) | Non-Commercial Operations / Flight Training/Instructional / Dual | Guaratinguetá, Sao Pablo","ARC (Abnormal runway contact), RE (Runway Excursion)",Pista,,PP-GMC,,,,,,-22.791,-45.204,0,0,Alto
JST,JST-RAW-77463989-2020,2020-09-03T14:45:00,2020-09-03,1445,,,Campo la banana,Mexico,Maniobra a baja altura,"Accidente | Specialised Operations / Aerial Work / Agricultural | Campo la banana, Mexico",Accidente,Operacion,,XB-XES,,,,,,-31.794722,-60.373889,0,0,Alto
JST,JST-RAW-60896240-20,2020-09-12T11:45:00,2020-09-12,1145,,,San Fernando,Buenos Aires,Aterrizaje,"Incidente grave | SCF-NP (System/component failure or malfunction (No Powerplant), LOC-G (Loss of control -ground), RE (Runway Excursion) | Commercial Air Transport / Non-Scheduled / Air Ambulance | San Fernando, Buenos Aires","SCF-NP (System/component failure or malfunction (No Powerplant), LOC-G (Loss of control -ground), RE (Runway Excursion)",Pista,,LV-IYQ,,,,,,-34.456111,-58.593056,0,0,Alto
JST,JST-RAW-66729421-2020,2020-10-04T20:40:00,2020-10-04,2040,,,Parada Leis,Misiones,En vuelo,"Accidente | LOC-I (Loss of control - inflight), OTHR (Other) | Non-Commercial Operations / Pleasure / Otros | Parada Leis, Misiones","LOC-I (Loss of control - inflight), OTHR (Other)",Operacion,,LV-X628,,,,,,-27.606667,-55.865,0,0,Critico
JST,JST-RAW-67758415-20,2020-10-06T21:30:00,2020-10-06,2130,,,Los Toldos,Buenos Aires,Ascenso inicial,"Accidente | SCF-PP (Powerplant failure or malfunction) | Non-Commercial Operations / Pleasure / Otros | Los Toldos, Buenos Aires",SCF-PP (Powerplant failure or malfunction),Tecnico,,LV-LXM,,,,,,-35.064167,-60.999444,0,0,Alto
JST,JST-RAW-68704744-2020,2020-10-08T11:30:00,2020-10-08,1130,,,Suipacha,Buenos Aires,En vuelo,"Accidente | SCF-NP (System/component failure or malfunction (No Powerplant), LOC-I (Loss of control - inflight) | Specialised Operations / Aerial Work / Agricultural | Suipacha, Buenos Aires","SCF-NP (System/component failure or malfunction (No Powerplant), LOC-I (Loss of control - inflight)",Tecnico,,LV-BDY,,,,,,-34.843611,-59.746944,0,0,Critico
JST,JST-RAW-77459814-2020,2020-10-09T15:08:00,2020-10-09,1508,,,Brazo Largo,Entre Rios,En vuelo,"Accidente | LOC-I (Loss of control - inflight) | Specialised Operations / Aerial Work / Agricultural | Brazo Largo, Entre Rios",LOC-I (Loss of control - inflight),Operacion,,XB-OKQ,,,,,,-31.363333,-64.125278,0,0,Critico
JST,JST-RAW-70329590-20,2020-10-17T14:40:00,2020-10-17,1440,,,Timbúes,Santa Fe,Ascenso inicial,"Incidente | SCF-PP (Powerplant failure or malfunction) | Non-Commercial Operations / Flight Training/Instructional / Other | Timbúes, Santa Fe",SCF-PP (Powerplant failure or malfunction),Tecnico,,LV-MOM,,,,,,-32.698611,-60.765556,0,0,Alto
JST,JST-RAW-72216558-2020,2020-10-24T20:00:00,2020-10-24,2000,,,ELDORADO,Misiones,En vuelo,"Incidente | OTHR (Other) | Non-Commercial Operations / Flight Training/Instructional / Other | ELDORADO, Misiones",OTHR (Other),Operacion,,LV-CLJ,,,,,,-26.566111,-54.633333,0,0,Medio
JST,JST-RAW-74339534-2020,2020-10-31T22:30:00,2020-10-31,2230,,,Marcos Juarez,Cordoba,Aterrizaje,"Accidente | USOS (Undershoot/overshoot) | Non-Commercial Operations / Pleasure / Otros | Marcos Juarez, Cordoba",USOS (Undershoot/overshoot),Pista,,LV-IIE,,,,,,-32.684444,-62.158056,0,0,Alto
JST,JST-RAW-74340779-2020,2020-11-01T17:20:00,2020-11-01,1720,,,Aeródromo de Rauch,Buenos Aires,Despegue,"Accidente | GTOW (Glider towing related events) | Non-Commercial Operations / Flight Training/Instructional / Other | Aeródromo de Rauch, Buenos Aires",GTOW (Glider towing related events),Operacion,,LV-DHD,,,,,,-36.672222,-59.058333,0,0,Alto
JST,JST-RAW-74344013-2020,2020-11-01T20:40:00,2020-11-01,2040,,,Morón,Buenos Aires,Ascenso inicial,"Incidente | SCF-PP (Powerplant failure or malfunction) | Non-Commercial Operations / Flight Training/Instructional / Other | Morón, Buenos Aires",SCF-PP (Powerplant failure or malfunction),Tecnico,,LV-IUV,,,,,,-35.210833,-59.136667,0,0,Alto
JST,JST-RAW-75511048-2020,2020-11-05T12:55:00,2020-11-05,1255,,,El Plumerillo,Mendoza,Aterrizaje,"Accidente | SCF-NP (System/component failure or malfunction (No Powerplant), RE (Runway Excursion) | Non-Commercial Operations / Bussiness / Bussiness | El Plumerillo, Mendoza","SCF-NP (System/component failure or malfunction (No Powerplant), RE (Runway Excursion)",Pista,,LV-VDJ,,,,,,-32.831667,-68.792778,0,0,Alto
JST,JST-RAW-78780080-2020,2020-11-13T21:20:00,2020-11-13,2120,,,Santo Tomé,Corrientes,En vuelo,"Accidente | OTHR (Other) | Non-Commercial Operations / Flight Training/Instructional / Other | Santo Tomé, Corrientes",OTHR (Other),Operacion,,LV-YFB,,,,,,-28.547778,-56.098611,0,0,Medio
JST,JST-RAW-79286405-2020,2020-11-17T14:50:00,2020-11-17,1450,,,Lujan,Buenos Aires,Ascenso inicial,"Accidente | SCF-PP (Powerplant failure or malfunction) | Non-Commercial Operations / Flight Training/Instructional / Other | Lujan, Buenos Aires",SCF-PP (Powerplant failure or malfunction),Tecnico,,LV-YNN,,,,,,-34.507222,-59.138611,0,0,Alto
JST,JST-RAW-19695992-23,2020-11-20T19:15:00,2020-11-20,1915,,,Rio Juramento,Salta,Maniobra a baja altura,"Accidente | NAV (Navigation Error), LALT (Low altitude operations), CFIT (Controlled fligth into or toward terrain) | Non-Commercial Operations / Bussiness / Bussiness | Rio Juramento, Ruta Provincial 47 km 32,5; Coronel Moldes, Salta","NAV (Navigation Error), LALT (Low altitude operations), CFIT (Controlled fligth into or toward terrain)",Operacion,,LV-FQN,,,,,,-25.293056,-65.288889,0,0,Critico
JST,JST-RAW-82929801-2020,2020-11-28T12:55:00,2020-11-28,1255,,,Valle de Conlara,San Luis,Aterrizaje,"Accidente | ARC (Abnormal runway contact) | Non-Commercial Operations / Pleasure / Otros | Valle de Conlara, San Luis",ARC (Abnormal runway contact),Pista,,LV-JLF,,,,,,-32.384444,-65.185833,0,0,Alto
JST,JST-RAW-84605430-2020,2020-12-04T12:18:00,2020-12-04,1218,,,Ita Ibate,Corrientes,Aterrizaje,"Accidente | RE (Runway Excursion) | Specialised Operations / Aerial Work / Agricultural | Ita Ibate, Corrientes",RE (Runway Excursion),Pista,,LV-GUQ,,,,,,-27.50638,-57.66083,0,0,Alto
JST,JST-RAW-84943777-2020,2020-12-05T19:40:00,2020-12-05,1940,,,Cañuelas,Buenos Aires,Aterrizaje,"Incidente | ARC (Abnormal runway contact) | Non-Commercial Operations / Pleasure / Otros | Cañuelas, Buenos Aires",ARC (Abnormal runway contact),Pista,,LV-DEY,,,,,,-35.111667,-58.726389,0,0,Alto
JST,JST-RAW-84943876-2020,2020-12-06T13:30:00,2020-12-06,1330,,,La Cumbre,Cordoba,Aterrizaje,"Accidente | ARC (Abnormal runway contact) | Non-Commercial Operations / Flight Training/Instructional / Solo (supervised) | La Cumbre, Cordoba",ARC (Abnormal runway contact),Pista,,LV-S034,,,,,,-31.005,-64.532778,0,0,Alto
JST,JST-RAW-85256397-2020,2020-12-08T18:00:00,2020-12-08,1800,,,Río Cuarto - (SAOC),Cordoba,Ascenso inicial,"Incidente | SCF-PP (Powerplant failure or malfunction) | Non-Commercial Operations / Bussiness / Bussiness | Río Cuarto - (SAOC), Cordoba",SCF-PP (Powerplant failure or malfunction),Tecnico,,LV-WLS,,,,,,-33.085278,-64.261389,0,0,Alto
JST,JST-RAW-85395053-2020,2020-12-09T15:30:00,2020-12-09,1530,,,Partido de Bahia Blanca,Buenos Aires,Ascenso inicial,"Incidente | SCF-PP (Powerplant failure or malfunction) | Non-Commercial Operations / Pleasure / Otros | Partido de Bahia Blanca, Buenos Aires",SCF-PP (Powerplant failure or malfunction),Tecnico,,LV-HTI,,,,,,-38.941389,-62.470278,0,0,Alto
JST,JST-RAW-5229196-23,2020-12-11T10:20:00,2020-12-11,1020,,,Mercedes,Corrientes,Ascenso inicial,"Accidente | SCF-PP (Powerplant failure or malfunction) | Specialised Operations / Aerial Work / Agricultural | Mercedes, Corrientes",SCF-PP (Powerplant failure or malfunction),Tecnico,,LV-CII,,,,,,-29.360833,-58.119167,0,0,Alto
JST,JST-RAW-89597356-2020,2020-12-21T19:10:00,2020-12-21,1910,,,Los Toldos,Buenos Aires,Aproximacion,"Incidente | ADRM (Aerodrome) | Non-Commercial Operations / Flight Training/Instructional / Other | Los Toldos, Buenos Aires",ADRM (Aerodrome),Pista,,LV-BXM,,,,,,-34.972222,-61.015,0,0,Medio
JST,JST-RAW-90693298-2020,2020-12-28T13:00:00,2020-12-28,1300,,,Lago Nahuel Huapi,Rio Negro,Despegue,"Accidente | CTOL (Collision with obstacle during take-off and landing) | Non-Commercial Operations / Pleasure / Local | Lago Nahuel Huapi, Rio Negro",CTOL (Collision with obstacle during take-off and landing),Operacion,,LV-X226,,,,,,-41.053889,-71.198333,0,0,Critico
JST,JST-RAW-02025653-21,2021-01-07T19:39:00,2021-01-07,1939,,,Comodoro Rivadavia,Chubut,En vuelo,"Accidente | SCF-NP (System/component failure or malfunction (No Powerplant) | Non-Commercial Operations / Relocation / Delivery | Comodoro Rivadavia, Chubut",SCF-NP (System/component failure or malfunction (No Powerplant),Tecnico,,LV-LTT,,,,,,-38.727222,-62.153333,0,0,Alto
JST,JST-RAW-02505382-21,2021-01-08T16:00:00,2021-01-08,1600,,,Lago Cholila,Chubut,En vuelo,"Accidente | SCF-NP (System/component failure or malfunction (No Powerplant) | Non-Commercial Operations / Pleasure / Otros | Lago Cholila, Chubut",SCF-NP (System/component failure or malfunction (No Powerplant),Tecnico,,LV-S004,,,,,,-42.464444,-71.597222,0,0,Alto
JST,JST-RAW-4510926-21,2021-01-09T21:30:00,2021-01-09,2130,,,Pergamino,Buenos Aires,Aproximacion,"Accidente | ADRM (Aerodrome) | Non-Commercial Operations / Pleasure / Local | Pergamino, Buenos Aires",ADRM (Aerodrome),Pista,,LV-X251,,,,,,-33.920278,-60.648056,0,0,Medio
JST,JST-RAW-3324219-21,2021-01-12T19:30:00,2021-01-12,1930,,,El Pampero,La Pampa,Rodaje,"Accidente | LOC-G (Loss of control -ground) | Non-Commercial Operations / Flight Training/Instructional / Other | El Pampero, La Pampa",LOC-G (Loss of control -ground),Operacion,,LV-JZF,,,,,,-36.596667,-64.187222,0,0,Alto
JST,JST-RAW-6589216-21,2021-01-23T18:00:00,2021-01-23,1800,,,Pérez,Santa Fe,En vuelo,"Accidente | SCF-NP (System/component failure or malfunction (No Powerplant), AMAN (Abrupt Maneuvre) | Non-Commercial Operations / Pleasure / Otros | Pérez, Santa Fe","SCF-NP (System/component failure or malfunction (No Powerplant), AMAN (Abrupt Maneuvre)",Tecnico,,LV-X198,,,,,,-33.013889,-60.8,0,0,Alto
JST,JST-RAW-24072277-21,2021-01-23T20:00:00,2021-01-23,2000,,,Pinamar,Buenos Aires,Aproximacion,"Incidente | ADRM (Aerodrome) | Non-Commercial Operations / Flight Training/Instructional / Other | Pinamar, Buenos Aires",ADRM (Aerodrome),Pista,,LV-IHF,,,,,,-37.09638,-56.97416,0,0,Medio
JST,JST-RAW-7146576-21,2021-01-26T09:30:00,2021-01-26,0930,,,Ministro Pistarini -Ezeiza (SAEZ),Buenos Aires,Rodaje,"Incidente grave | RI (Runway Incursion) | Commercial Air Transport / Scheduled / Airline (domestic) | Ministro Pistarini -Ezeiza (SAEZ), Buenos Aires",RI (Runway Incursion),Pista,,LV-HFR,,,,,,-34.816111,-58.532778,0,0,Medio
JST,JST-RAW-7090271-21,2021-01-26T17:05:00,2021-01-26,1705,,,General Rodríguez,Buenos Aires,En tierra,"Accidente | F-POST (Fire/smoke Post-Impact), LOC-I (Loss of control - inflight) | Non-Commercial Operations / Pleasure / Otros | General Rodríguez, Buenos Aires","F-POST (Fire/smoke Post-Impact), LOC-I (Loss of control - inflight)",Seguridad operacional,,LV-X611,,,,,,-34.256667,-63.595278,0,0,Critico
JST,JST-RAW-11837194-21,2021-02-09T11:00:00,2021-02-09,1100,,,Saira,Cordoba,Ascenso inicial,"Accidente | SCF-PP (Powerplant failure or malfunction) | Non-Commercial Operations / Bussiness / Bussiness | Saira, Cordoba",SCF-PP (Powerplant failure or malfunction),Tecnico,,LV-LXD,,,,,,-25.737222,-54.473333,0,0,Alto
JST,JST-RAW-13476494-21,2021-02-11T21:30:00,2021-02-11,2130,,,Alcaraz,Entre Rios,En vuelo,"Accidente | UNK (Unknown o undetermined) | Specialised Operations / Aerial Work / Agricultural | Alcaraz, Entre Rios",UNK (Unknown o undetermined),Operacion,,LV-BNL,,,,,,-31.521944,-59.491944,0,0,Bajo
JST,JST-RAW-13467164-2021,2021-02-14T21:00:00,2021-02-14,2100,,,Pehuajo,Buenos Aires,Ascenso inicial,"Accidente | FUEL (Fuel related) | Non-Commercial Operations / Pleasure / Otros | Pehuajo, Buenos Aires",FUEL (Fuel related),Tecnico,,LV-GMJ,,,,,,-35.820833,-61.855278,0,0,Alto
JST,JST-RAW-16573504-21,2021-02-23T20:00:00,2021-02-23,2000,,,General Belgrano,Salta,Aterrizaje,"Incidente | ARC (Abnormal runway contact) | Non-Commercial Operations / Flight Training/Instructional / Other | General Belgrano, Salta",ARC (Abnormal runway contact),Pista,,LV-ASJ,,,,,,-24.745833,-65.418889,0,0,Alto
JST,JST-RAW-18060055-21,2021-03-02T15:00:00,2021-03-02,1500,,,Aeroclub San Lorenzo,Santa Fe,Aterrizaje,"Accidente | SCF-NP (System/component failure or malfunction (No Powerplant), RE (Runway Excursion) | Non-Commercial Operations / Flight Training/Instructional / Solo (supervised) | Aeroclub San Lorenzo, Santa Fe","SCF-NP (System/component failure or malfunction (No Powerplant), RE (Runway Excursion)",Pista,,LV-ODP,,,,,,-32.718333,-60.785278,0,0,Alto
JST,JST-RAW-19196545-21,2021-03-04T13:30:00,2021-03-04,1330,,,25 de mayo,Buenos Aires,Maniobra a baja altura,"Accidente | LALT (Low altitude operations), LOC-I (Loss of control - inflight) | Specialised Operations / Aerial Work / Other | 25 de mayo, Buenos Aires","LALT (Low altitude operations), LOC-I (Loss of control - inflight)",Operacion,,LV-BHV,,,,,,-35.495278,-59.866667,0,0,Critico
JST,JST-RAW-20256169-21,2021-03-05T22:00:00,2021-03-05,2200,,,San Fernando,Buenos Aires,Ascenso inicial,"Incidente | BIRD (Birdstrike) | Commercial Air Transport / Non-Scheduled / Airline (domestic) | San Fernando, Buenos Aires",BIRD (Birdstrike),Fauna,,LV-GOM,,,,,,-34.455,-58.591389,0,0,Alto
JST,JST-RAW-20098649-21,2021-03-06T11:25:00,2021-03-06,1125,,,Timbúes,Santa Fe,Ascenso inicial,"Incidente grave | FUEL (Fuel related) | Non-Commercial Operations / Pleasure / Otros | Timbúes, Santa Fe",FUEL (Fuel related),Tecnico,,LV-ITP,,,,,,-32.68305,-60.77722,0,0,Alto
JST,JST-RAW-20096630-21,2021-03-06T12:45:00,2021-03-06,1245,,,Aeródromo Uspallata,Mendoza,Aproximacion,"Accidente | WSTRW (Windshear or thunderstorm), LALT (Low altitude operations), LOC-I (Loss of control - inflight) | Unknown / Unknown / Se desconoce | Aeródromo Uspallata, Mendoza","WSTRW (Windshear or thunderstorm), LALT (Low altitude operations), LOC-I (Loss of control - inflight)",Operacion,,LV-S084,,,,,,-32.763333,-69.39,0,0,Critico
JST,JST-RAW-20087088-21,2021-03-06T22:30:00,2021-03-06,2230,,,General San Martín,Mendoza,Aterrizaje,"Incidente | ARC (Abnormal runway contact) | Non-Commercial Operations / Flight Training/Instructional / Other | General San Martín, Mendoza",ARC (Abnormal runway contact),Pista,,LV-S029,,,,,,-33.062222,-68.509444,0,0,Alto
JST,JST-RAW-20099792-21,2021-03-07T23:00:00,2021-03-07,2300,,,Concordia,Entre Rios,En vuelo,"Incidente grave | SCF-NP (System/component failure or malfunction (No Powerplant) | Non-Commercial Operations / Bussiness / Bussiness | Concordia, Entre Rios",SCF-NP (System/component failure or malfunction (No Powerplant),Tecnico,,LV-ZYB,,,,,,-31.296944,-57.996667,0,0,Alto
JST,JST-RAW-22564759-21,2021-03-12T21:55:00,2021-03-12,2155,,,La Matanza,Buenos Aires,Ascenso inicial,"Accidente | SCF-PP (Powerplant failure or malfunction), RE (Runway Excursion) | Non-Commercial Operations / Flight Training/Instructional / Other | La Matanza, Buenos Aires","SCF-PP (Powerplant failure or malfunction), RE (Runway Excursion)",Pista,,LV-AMS,,,,,,-34.72361,-58.515,0,0,Alto
JST,JST-RAW-26301118-21,2021-03-23T19:05:00,2021-03-23,1905,,,Posadas Gral José de San Martín (SARP),Misiones,Aterrizaje,"Incidente | SCF-NP (System/component failure or malfunction (No Powerplant), RE (Runway Excursion) | Non-Commercial Operations / Flight Training/Instructional / Other | Posadas Gral José de San Martín (SARP), Misiones","SCF-NP (System/component failure or malfunction (No Powerplant), RE (Runway Excursion)",Pista,,LV-X641,,,,,,-27.38583,-55.97055,0,0,Alto
JST,JST-RAW-26302678-21,2021-03-24T13:30:00,2021-03-24,1330,,,Ceres,Santa Fe,Maniobra a baja altura,"Accidente | LALT (Low altitude operations), LOC-I (Loss of control - inflight) | Specialised Operations / Aerial Work / Agricultural | Ceres, Santa Fe","LALT (Low altitude operations), LOC-I (Loss of control - inflight)",Operacion,,LV-MCJ,,,,,,-29.7575,-61.87805,0,0,Critico
JST,JST-RAW-28547220-21,2021-03-31T11:20:00,2021-03-31,1120,,,Arteaga,Santa Fe,En vuelo,"Accidente | UIMC (Unintended Flight in IMC) | Non-Commercial Operations / Bussiness / Bussiness | Arteaga, Santa Fe",UIMC (Unintended Flight in IMC),Operacion,,LV-MLX,,,,,,-33.21666,-61.86666,0,0,Alto
JST,JST-RAW-31530947-21,2021-04-12T14:00:00,2021-04-12,1400,,,La Plata,Buenos Aires,Ascenso inicial,"Incidente grave | SCF-PP (Powerplant failure or malfunction) | Non-Commercial Operations / Flight Training/Instructional / Other | La Plata, Buenos Aires",SCF-PP (Powerplant failure or malfunction),Tecnico,,LV-GDK,,,,,,-34.95888,-58.00444,0,0,Alto
JST,JST-RAW-32447215-21,2021-04-14T15:30:00,2021-04-14,1530,,,Cañuelas,Buenos Aires,En tierra,"Accidente | F-POST (Fire/smoke Post-Impact), LOC-I (Loss of control - inflight) | Non-Commercial Operations / Flight Training/Instructional / Other | Cañuelas, Buenos Aires","F-POST (Fire/smoke Post-Impact), LOC-I (Loss of control - inflight)",Seguridad operacional,,LV-S008,,,,,,-35.1175,-58.72361,0,0,Critico
JST,JST-RAW-39571139-21,2021-05-02T15:00:00,2021-05-02,1500,,,El Carmen,Jujuy,Ascenso inicial,"Accidente | SCF-PP (Powerplant failure or malfunction) | Non-Commercial Operations / Pleasure / Otros | El Carmen, Jujuy",SCF-PP (Powerplant failure or malfunction),Tecnico,,LV-MZX,,,,,,-24.37944,-65.23888,0,0,Alto
JST,JST-RAW-39552999-21,2021-05-04T14:00:00,2021-05-04,1400,,,Presidente Rivadavia,Buenos Aires,Aterrizaje,"Incidente | BIRD (Birdstrike) | Non-Commercial Operations / Flight Training/Instructional / Other | Presidente Rivadavia, Buenos Aires",BIRD (Birdstrike),Fauna,,LV-BRF,,,,,,-34.67916,-58.64277,0,0,Alto
JST,JST-RAW-39553582-21,2021-05-05T13:35:00,2021-05-05,1335,,,Zárate,Buenos Aires,Aproximacion,"Incidente | ADRM (Aerodrome) | Non-Commercial Operations / Flight Training/Instructional / Other | Zárate, Buenos Aires",ADRM (Aerodrome),Pista,,LV-GUY,,,,,,-34.1175,-59.08222,0,0,Medio
JST,JST-RAW-41953974-21,2021-05-11T21:25:00,2021-05-11,2125,,,Juan Domingo Perón - Neuquén (SAZN),Neuquen,Aterrizaje,"Accidente | ARC (Abnormal runway contact) | Non-Commercial Operations / Pleasure / Otros | Juan Domingo Perón - Neuquén (SAZN), Neuquen",ARC (Abnormal runway contact),Pista,,LV-GUK,,,,,,-38.94888,-68.15583,0,0,Alto
JST,JST-RAW-44076210-21,2021-05-17T20:10:00,2021-05-17,2010,,,Mercedes,Buenos Aires,Aproximacion,"Accidente | ADRM (Aerodrome), GCOL (Ground Collision) | Unknown / Unknown / Se desconoce | Mercedes, Buenos Aires","ADRM (Aerodrome), GCOL (Ground Collision)",Pista,,LV-ATE,,,,,,-34.63944,-59.40555,0,0,Alto
JST,JST-RAW-48379302-21,2021-05-30T16:00:00,2021-05-30,1600,,,Garza,Santiago Del Estero,En vuelo,"Accidente | SCF-NP (System/component failure or malfunction (No Powerplant) | Non-Commercial Operations / Pleasure / Otros | Garza, Santiago Del Estero",SCF-NP (System/component failure or malfunction (No Powerplant),Tecnico,,LV-X774,,,,,,-28.29388,-63.37472,0,0,Alto
JST,JST-RAW-67220206-21,2021-06-18T20:30:00,2021-06-18,2030,,,Aeropuerto Internacional de Laguna del Sauce,Maldonado,Aterrizaje,"Incidente | RE (Runway Excursion) | Non-Commercial Operations / Bussiness / Bussiness | Aeropuerto Internacional de Laguna del Sauce, Maldonado",RE (Runway Excursion),Pista,,LV-IYQ,,,,,,-34.855,-55.09416,0,0,Alto
JST,JST-RAW-55482492-21,2021-06-19T11:30:00,2021-06-19,1130,,,Ezpeleta,Buenos Aires,En vuelo,"Accidente | OTHR (Other) | Non-Commercial Operations / Flight Training/Instructional / Other | Ezpeleta, Buenos Aires",OTHR (Other),Operacion,,LV-YQF,,,,,,-34.74222,-58.20666,0,0,Medio
JST,JST-RAW-57388959-21,2021-06-26T20:30:00,2021-06-26,2030,,,San Martín,Mendoza,Aterrizaje,"Incidente | ARC (Abnormal runway contact) | Non-Commercial Operations / Flight Training/Instructional / Other | San Martín, Mendoza",ARC (Abnormal runway contact),Pista,,LV-AOX,,,,,,-33.05111,-68.50944,0,0,Alto
JST,JST-RAW-59349420-21,2021-07-01T15:30:00,2021-07-01,1530,,,Gálvez,Santa Fe,Rodaje,"Incidente | LOC-G (Loss of control -ground) | Non-Commercial Operations / Flight Training/Instructional / Other | Gálvez, Santa Fe",LOC-G (Loss of control -ground),Operacion,,LV-RNY,,,,,,-32.01666,-61.17666,0,0,Alto
JST,JST-RAW-59719000-21,2021-07-03T17:00:00,2021-07-03,1700,,,Ezpeleta,Buenos Aires,Aproximacion,"Accidente | ADRM (Aerodrome) | Non-Commercial Operations / Pleasure / Otros | Ezpeleta, Buenos Aires",ADRM (Aerodrome),Pista,,LV-HFU,,,,,,-34.745,-58.205,0,0,Medio
JST,JST-RAW-59718268-21,2021-07-04T21:20:00,2021-07-04,2120,,,Villa Mercedes,San Luis,Aterrizaje,"Accidente | RE (Runway Excursion) | Non-Commercial Operations / Pleasure / Otros | Villa Mercedes, San Luis",RE (Runway Excursion),Pista,,LV-OMS,,,,,,-33.64027,-65.42,0,0,Alto
JST,JST-RAW-60742424-21,2021-07-06T16:30:00,2021-07-06,1630,,,San Fernando,Buenos Aires,En vuelo,"Incidente | SCF-NP (System/component failure or malfunction (No Powerplant) | Unknown / Unknown / Se desconoce | San Fernando, Buenos Aires",SCF-NP (System/component failure or malfunction (No Powerplant),Tecnico,,LV-AHX,,,,,,-34.46027,-58.59583,0,0,Alto
JST,JST-RAW-62293219-21,2021-07-08T16:45:00,2021-07-08,1645,,,Aeroparque Jorge Newbery (SABE),Buenos Aires,En vuelo,"Incidente grave | F-NI (Fire/smoke non-impact) | Commercial Air Transport / Scheduled / Airline (domestic) | Aeroparque Jorge Newbery (SABE), Buenos Aires",F-NI (Fire/smoke non-impact),Seguridad operacional,,LV-CMB,,,,,,-34.55972,-58.415,0,0,Alto
JST,JST-RAW-64093487-21,2021-07-15T17:40:00,2021-07-15,1740,,,Ingeniero Taravella - Córdoba (SACO),Cordoba,Rodaje,"Incidente | GCOL (Ground Collision) | Commercial Air Transport / Scheduled / Airline (domestic) | Ingeniero Taravella - Córdoba (SACO), Cordoba",GCOL (Ground Collision),Operacion,,LV-IVO,,,,,,-31.31,-64.2083,0,0,Alto
JST,JST-RAW-64534781-21,2021-07-16T20:15:00,2021-07-16,2015,,,Marcos Paz,Buenos Aires,En vuelo,"Accidente | LOC-I (Loss of control - inflight) | Non-Commercial Operations / Flight Training/Instructional / Other | Marcos Paz, Buenos Aires",LOC-I (Loss of control - inflight),Operacion,,LV-JFK,,,,,,-34.73972,-58.90277,0,0,Critico
JST,JST-RAW-64536517-21,2021-07-17T19:00:00,2021-07-17,1900,,,Ezpeleta,Buenos Aires,Aterrizaje,"Accidente | LOC-G (Loss of control -ground), RE (Runway Excursion) | Unknown / Unknown / Se desconoce | Ezpeleta, Buenos Aires","LOC-G (Loss of control -ground), RE (Runway Excursion)",Pista,,LV-GXN,,,,,,-34.74694,-58.20361,0,0,Alto
JST,JST-RAW-72510988-21,2021-07-21T16:30:00,2021-07-21,1630,,,Fortín Belgrano,Chaco,Aterrizaje,"Incidente | ARC (Abnormal runway contact) | Non-Commercial Operations / Bussiness / Bussiness | Fortín Belgrano, Chaco",ARC (Abnormal runway contact),Pista,,LQ-ZPR,,,,,,-24.12111,-62.33944,0,0,Alto
JST,JST-RAW-66978998-21,2021-07-23T14:15:00,2021-07-23,1415,,,San Carlos Norte,Santa Fe,Ascenso inicial,"Incidente | SCF-PP (Powerplant failure or malfunction) | Non-Commercial Operations / Pleasure / Otros | San Carlos Norte, Santa Fe",SCF-PP (Powerplant failure or malfunction),Tecnico,,LV-HBS,,,,,,-27.77583,-55.85333,0,0,Alto
JST,JST-RAW-69379768-21,2021-07-31T14:15:00,2021-07-31,1415,,,Concepción del Uruguay,Entre Rios,En vuelo,"Incidente | SCF-NP (System/component failure or malfunction (No Powerplant) | Unknown / Unknown / Se desconoce | Concepción del Uruguay, Entre Rios",SCF-NP (System/component failure or malfunction (No Powerplant),Tecnico,,LV-OAW,,,,,,-32.15444,-58.19944,0,0,Alto
JST,JST-RAW-70293688-21,2021-08-03T21:15:00,2021-08-03,2115,,,Rivadavia,Mendoza,Ascenso inicial,"Accidente | SCF-PP (Powerplant failure or malfunction) | Non-Commercial Operations / Pleasure / Local | Rivadavia, Mendoza",SCF-PP (Powerplant failure or malfunction),Tecnico,,LV-UX079,,,,,,-32.96305,-68.87277,0,0,Alto
JST,JST-RAW-80437357-21,2021-08-07T20:30:00,2021-08-07,2030,,,Cañuelas,Buenos Aires,Ascenso inicial,"Accidente | SCF-PP (Powerplant failure or malfunction) | Specialised Operations / Aerial Work / Towing | Cañuelas, Buenos Aires",SCF-PP (Powerplant failure or malfunction),Tecnico,,LV-MBO,,,,,,-35.11166,-58.72638,0,0,Alto
JST,JST-RAW-74901395-21,2021-08-15T19:15:00,2021-08-15,1915,,,Bragado,Buenos Aires,Rodaje,"Accidente | GCOL (Ground Collision) | Non-Commercial Operations / Flight Training/Instructional / Other, Non-Commercial Operations / Pleasure / Local | Bragado, Buenos Aires",GCOL (Ground Collision),Operacion,,"LV-APM, LV-GDU",,,,,,-35.33147,-60.57884,0,0,Alto
JST,JST-RAW-805339326-21,2021-08-22T16:30:00,2021-08-22,1630,,,Suls,Maldonado,En vuelo,"Accidente | CFIT (Controlled fligth into or toward terrain) | Non-Commercial Operations / Pleasure / Otros | Suls, Maldonado",CFIT (Controlled fligth into or toward terrain),Operacion,,LV-CVT,,,,,,-34.855,-55.09416,0,0,Critico
JST,JST-RAW-80441243-21,2021-08-28T19:30:00,2021-08-28,1930,,,Pueblo Esther,Santa Fe,Aterrizaje,"Accidente | ARC (Abnormal runway contact) | Specialised Operations / Aerial Work / Other | Pueblo Esther, Santa Fe",ARC (Abnormal runway contact),Pista,,LV-X662,,,,,,-33.08333,-60.55194,0,0,Alto
JST,JST-RAW-86467423-21,2021-09-01T14:00:00,2021-09-01,1400,,,Aeroparque Jorge Newbery (SABE),Buenos Aires,En tierra,"Incidente | RAMP (Ground Handling) | Commercial Air Transport / Scheduled / Airline (domestic) | Aeroparque Jorge Newbery (SABE), Buenos Aires",RAMP (Ground Handling),Seguridad operacional,,LV-IVN,,,,,,-34.55888,-58.41638,0,0,Medio
JST,JST-RAW-88708570-21,2021-09-19T18:25:00,2021-09-19,1825,,,San Andres de Giles,Buenos Aires,En vuelo,"Accidente | SCF-NP (System/component failure or malfunction (No Powerplant) | Specialised Operations / Aerial Work / Other | San Andres de Giles, Buenos Aires",SCF-NP (System/component failure or malfunction (No Powerplant),Tecnico,,LV-JYF,,,,,,-34.47027,-59.42472,0,0,Alto
JST,JST-RAW-94210642-21,2021-10-03T15:01:00,2021-10-03,1501,,,Morón,Buenos Aires,Aterrizaje,"Incidente | RE (Runway Excursion) | Non-Commercial Operations / Flight Training/Instructional / Other | Morón, Buenos Aires",RE (Runway Excursion),Pista,,LV-BXR,,,,,,-34.67916,-58.64361,0,0,Alto
JST,JST-RAW-97298782-21,2021-10-08T21:30:00,2021-10-08,2130,,,Intendente Alvear,La Pampa,En vuelo,"Accidente | CFIT (Controlled fligth into or toward terrain) | Specialised Operations / Aerial Work / Agricultural | Intendente Alvear, La Pampa",CFIT (Controlled fligth into or toward terrain),Operacion,,LV-BDW,,,,,,-35.36333,-63.46805,0,0,Critico
JST,JST-RAW-97299571-21,2021-10-09T21:30:00,2021-10-09,2130,,,Lago Rosario,Chubut,Ascenso inicial,"Accidente | FUEL (Fuel related) | Non-Commercial Operations / Pleasure / Local | Lago Rosario, Chubut",FUEL (Fuel related),Tecnico,,LV-GBY,,,,,,-43.25027,-71.34888,0,0,Alto
JST,JST-RAW-99216983-21,2021-10-15T21:10:00,2021-10-15,2110,,,Burzaco,Buenos Aires,Ascenso inicial,"Accidente | FUEL (Fuel related) | Specialised Operations / Aerial Work / Other | Burzaco, Buenos Aires",FUEL (Fuel related),Tecnico,,LV-FIU,,,,,,-34.81722,-58.635,0,0,Alto
JST,JST-RAW-99215439-21,2021-10-17T08:00:00,2021-10-17,0800,,,Mercedes,Buenos Aires,Aterrizaje,"Incidente | BIRD (Birdstrike) | Non-Commercial Operations / Flight Training/Instructional / Other | Mercedes, Buenos Aires",BIRD (Birdstrike),Fauna,,LV-CKO,,,,,,-34.63888,-59.45527,0,0,Alto
JST,JST-RAW-105094269-21,2021-10-23T11:15:00,2021-10-23,1115,,,Au Perito Moreno altura peaje Parque Avellaneda,Ciudad Autónoma De Buenos Aires,Rodaje,"Accidente | GCOL (Ground Collision) | Commercial Air Transport / Non-Scheduled / Air Ambulance | Au Perito Moreno altura peaje Parque Avellaneda, Ciudad Autónoma De Buenos Aires",GCOL (Ground Collision),Operacion,,LV-CVE,,,,,,-34.64722,-58.47833,0,0,Alto
JST,JST-RAW-102726258-21,2021-10-26T13:30:00,2021-10-26,1330,,,San Fernando,Buenos Aires,En vuelo,"Incidente | F-NI (Fire/smoke non-impact) | Commercial Air Transport / Non-Scheduled / Air Ambulance | San Fernando, Buenos Aires",F-NI (Fire/smoke non-impact),Seguridad operacional,,LV-BPO,,,,,,-34.455,-58.59138,0,0,Alto
JST,JST-RAW-105110377-21,2021-10-30T13:40:00,2021-10-30,1340,,,Marcos Paz,Buenos Aires,Ascenso inicial,"Accidente | SCF-PP (Powerplant failure or malfunction) | Non-Commercial Operations / Flight Training/Instructional / Other | Marcos Paz, Buenos Aires",SCF-PP (Powerplant failure or malfunction),Tecnico,,LV-GKC,,,,,,-34.72277,-58.89277,0,0,Alto
JST,JST-RAW-105107497-21,2021-10-30T22:19:00,2021-10-30,2219,,,Villa General Belgrano,Cordoba,Maniobra a baja altura,"Accidente | LALT (Low altitude operations) | Non-Commercial Operations / Pleasure / Otros | Villa General Belgrano, Cordoba",LALT (Low altitude operations),Operacion,,LV-X571,,,,,,-31.96722,-64.56305,0,0,Alto
JST,JST-RAW-105099341-21,2021-10-31T21:00:00,2021-10-31,2100,,,Itacaruaré,Misiones,Despegue,"Accidente | CTOL (Collision with obstacle during take-off and landing), AMAN (Abrupt Maneuvre) | Non-Commercial Operations / Pleasure / Local | Itacaruaré, San Javier, Misiones","CTOL (Collision with obstacle during take-off and landing), AMAN (Abrupt Maneuvre)",Operacion,,LV-UX120,,,,,,-27.88333,-55.13611,0,0,Critico
JST,JST-RAW-105559269-21,2021-11-02T07:27:00,2021-11-02,0727,,,Aeroparque Jorge Newbery (SABE),Buenos Aires,En vuelo,"Incidente | AMAN (Abrupt Maneuvre) | Non-Commercial Operations / Bussiness / Bussiness | Aeroparque Jorge Newbery (SABE), Buenos Aires",AMAN (Abrupt Maneuvre),Operacion,,LV-BYN,,,,,,-34.55972,-58.415,0,0,Alto
JST,JST-RAW-107714093-21,2021-11-03T00:40:00,2021-11-03,0040,,,Baradero,Buenos Aires,En vuelo,"Incidente | SCF-NP (System/component failure or malfunction (No Powerplant) | Commercial Air Transport / Scheduled / Airline (domestic) | Baradero, Buenos Aires",SCF-NP (System/component failure or malfunction (No Powerplant),Tecnico,,N36962,,,,,,-33.81027,-59.49972,0,0,Alto
JST,JST-RAW-108963100-21,2021-11-09T16:47:00,2021-11-09,1647,,,General Rodríguez,Buenos Aires,Aterrizaje,"Accidente | ARC (Abnormal runway contact) | Non-Commercial Operations / Flight Training/Instructional / Other | General Rodríguez, Buenos Aires",ARC (Abnormal runway contact),Pista,,LV-AMI,,,,,,-34.68027,-59.03583,0,0,Alto
JST,JST-RAW-109328996-21,2021-11-10T20:50:00,2021-11-10,2050,,,San Carlos de Bolívar,Buenos Aires,En vuelo,"Accidente | LOLI (Loss of lifting conditions en-route), CFIT (Controlled fligth into or toward terrain) | Non-Commercial Operations / Pleasure / Otros | San Carlos de Bolívar, Buenos Aires","LOLI (Loss of lifting conditions en-route), CFIT (Controlled fligth into or toward terrain)",Operacion,,LV-ENW,,,,,,-36.08055,-60.86944,0,0,Critico
JST,JST-RAW-29824857-24,2021-11-17T18:30:00,2021-11-17,1830,,,Rauch,Buenos Aires,En tierra,"Accidente | F-POST (Fire/smoke Post-Impact), LALT (Low altitude operations), LOC-I (Loss of control - inflight) | Non-Commercial Operations / Relocation / Ferry | Rauch, Buenos Aires","F-POST (Fire/smoke Post-Impact), LALT (Low altitude operations), LOC-I (Loss of control - inflight)",Seguridad operacional,,LV-ZRH,,,,,,-36.99388,-59.26972,0,0,Critico
JST,JST-RAW-112293404-21,2021-11-18T12:30:00,2021-11-18,1230,,,Morón,Buenos Aires,Rodaje,"Accidente | GCOL (Ground Collision) | Non-Commercial Operations / Relocation / Ferry | Morón, Buenos Aires",GCOL (Ground Collision),Operacion,,LV-CDW,,,,,,-34.67916,-58.64277,0,0,Alto
JST,JST-RAW-113471705-21,2021-11-20T12:35:00,2021-11-20,1235,,,Azcarate Irastorsa S.A - Int. Alvear,La Pampa,Aterrizaje,"Accidente | USOS (Undershoot/overshoot) | Non-Commercial Operations / Pleasure / Otros | Azcarate Irastorsa S.A - Int. Alvear, La Pampa",USOS (Undershoot/overshoot),Pista,,LV-BXJ,,,,,,-35.23361,-63.56555,0,0,Alto
JST,JST-RAW-119929779-21,2021-12-10T10:40:00,2021-12-10,1040,,,Alagro. Localidad: FUNES,Santa Fe,Aterrizaje,"Accidente | ARC (Abnormal runway contact) | Non-Commercial Operations / Flight Training/Instructional / Solo (supervised) | Alagro. Localidad: FUNES, Santa Fe",ARC (Abnormal runway contact),Pista,,LV-CJR,,,,,,-32.89,-60.84361,0,0,Alto
JST,JST-RAW-6658234-22,2021-12-21T23:15:00,2021-12-21,2315,,,El Pampero,La Pampa,En vuelo,"Incidente | SCF-NP (System/component failure or malfunction (No Powerplant) | Non-Commercial Operations / Pleasure / Local | El Pampero, La Pampa",SCF-NP (System/component failure or malfunction (No Powerplant),Tecnico,,LV-EQS,,,,,,-36.592862,-64.187126,0,0,Alto
JST,JST-RAW-126611445-21,2021-12-29T14:15:00,2021-12-29,1415,,,40 NM al Norte de AD Chapelco,Neuquen,En vuelo,"Accidente | EXTL (External load related ocurrences) | Nationally Regulated Operations (State Operations) / Firefighting / Firefighting | 40 NM al Norte de AD Chapelco, Neuquen",EXTL (External load related ocurrences),Operacion,,LV-KAI,,,,,,-40.075278,-71.137222,0,0,Alto
JST,JST-RAW-35544821-23,2022-01-15T13:40:00,2022-01-15,1340,,,Cajati,San Pablo,Rodaje,"Accidente | LOC-G (Loss of control -ground), RAMP (Ground Handling) | Specialised Operations / Aerial Work / Agricultural | Cajati, San Pablo","LOC-G (Loss of control -ground), RAMP (Ground Handling)",Seguridad operacional,,PR-SOD,,,,,,-20.962,-49.213,0,0,Alto
JST,JST-RAW-16106876-24,2022-01-15T22:30:00,2022-01-15,2230,,,Santo Tomé,Corrientes,En vuelo,"Accidente | LOC-I (Loss of control - inflight) | Nationally Regulated Operations (State Operations) / Firefighting / Firefighting | Santo Tomé, Corrientes",LOC-I (Loss of control - inflight),Operacion,,LV-WZE,,,,,,-28.52305,-56.11277,0,0,Critico
JST,JST-RAW-6496349-22,2022-01-20T09:45:00,2022-01-20,0945,,,San Fernando,Buenos Aires,Ascenso inicial,"Incidente | BIRD (Birdstrike) | Commercial Air Transport / Non-Scheduled / Airline (domestic) | San Fernando, Buenos Aires",BIRD (Birdstrike),Fauna,,LV-ZTR,,,,,,-34.455,-58.59138,0,0,Alto
JST,JST-RAW-22353426-22,2022-03-02T16:30:00,2022-03-02,1630,,,Angra dos Reis,Angra Dos Reis,Aterrizaje,"Accidente | RE (Runway Excursion) | Non-Commercial Operations / Pleasure / Otros | Angra dos Reis, Angra Dos Reis",RE (Runway Excursion),Pista,,LV-GQN,,,,,,-22.97527,-44.30722,0,0,Alto
JST,JST-RAW-70693621-24,2022-03-09T19:30:00,2022-03-09,1930,,,General Pinedo,Chaco,Ascenso inicial,"Accidente | FUEL (Fuel related) | Specialised Operations / Aerial Work / Agricultural | General Pinedo, Chaco",FUEL (Fuel related),Tecnico,,LV-JQL,,,,,,-27.46611,-61.61055,0,0,Alto
JST,JST-RAW-25677952-22,2022-03-12T16:30:00,2022-03-12,1630,,,Mula Muerta,Cordoba,Ascenso inicial,"Accidente | FUEL (Fuel related) | Specialised Operations / Aerial Work / Agricultural | Mula Muerta, Cordoba",FUEL (Fuel related),Tecnico,,LV-BYP,,,,,,-30.88194,-63.965,0,0,Alto
JST,JST-RAW-24983343-22,2022-03-14T18:45:00,2022-03-14,1845,,,San Justo,Santa Fe,Aterrizaje,"Accidente | ARC (Abnormal runway contact), RE (Runway Excursion) | Non-Commercial Operations / Bussiness / Bussiness | San Justo, Santa Fe","ARC (Abnormal runway contact), RE (Runway Excursion)",Pista,,LV-MEE,,,,,,-30.76805,-60.56833,0,0,Alto
JST,JST-RAW-26584049-22,2022-03-19T20:10:00,2022-03-19,2010,,,San Fernando,Buenos Aires,Ascenso inicial,"Incidente | FUEL (Fuel related) | Non-Commercial Operations / Pleasure / Otros | San Fernando, Buenos Aires",FUEL (Fuel related),Tecnico,,LV-HWL,,,,,,-34.455,-58.59138,0,0,Alto
JST,JST-RAW-35178584-22,2022-04-07T11:15:00,2022-04-07,1115,,,San Fernando,Buenos Aires,Rodaje,"Incidente | GCOL (Ground Collision) | Commercial Air Transport / Scheduled / Airline (domestic) | San Fernando, Buenos Aires",GCOL (Ground Collision),Operacion,,LV-KBS,,,,,,-34.455,-58.59138,0,0,Alto
JST,JST-RAW-36953095-22,2022-04-16T18:40:00,2022-04-16,1840,,,Necochea,Buenos Aires,Ascenso inicial,"Incidente grave | SCF-PP (Powerplant failure or malfunction) | Non-Commercial Operations / Pleasure / Local | Necochea, Buenos Aires",SCF-PP (Powerplant failure or malfunction),Tecnico,,LV-OFS,,,,,,-38.60541,-58.79166,0,0,Alto
JST,JST-RAW-49951658-22,2022-05-03T20:15:00,2022-05-03,2015,,,Alto Paraíso de Goiás,Goiás,En vuelo,"Accidente | SCF-NP (System/component failure or malfunction (No Powerplant) | Specialised Operations / Aerial Work / Agricultural | Alto Paraíso de Goiás, Goiás",SCF-NP (System/component failure or malfunction (No Powerplant),Tecnico,,PT-OUB,,,,,,-14.30083,-47.45722,0,0,Alto
JST,JST-RAW-44739297-22,2022-05-05T19:30:00,2022-05-05,1930,,,Santa Rosa (SAZR),La Pampa,Aterrizaje,"Incidente | ARC (Abnormal runway contact) | Non-Commercial Operations / Pleasure / Local | Santa Rosa (SAZR), La Pampa",ARC (Abnormal runway contact),Pista,,LV-EQS,,,,,,-36.59666,-64.18722,0,0,Alto
JST,JST-RAW-47591895-22,2022-05-12T13:00:00,2022-05-12,1300,,,Resistencia (SARE),Chaco,En vuelo,"Incidente | SCF-NP (System/component failure or malfunction (No Powerplant) | Non-Commercial Operations / Pleasure / Otros | Resistencia (SARE), Chaco",SCF-NP (System/component failure or malfunction (No Powerplant),Tecnico,,LV-MYA,,,,,,-27.45,-59.05611,0,0,Alto
JST,JST-RAW-53119193-22,2022-05-17T10:00:00,2022-05-17,1000,,,Brasilândia de Minas,Minas Gerais,Rodaje,"Accidente | GCOL (Ground Collision) | Specialised Operations / Aerial Work / Agricultural | Brasilândia de Minas, Minas Gerais",GCOL (Ground Collision),Operacion,,PR-CTD,,,,,,-17.07027,-45.87444,0,0,Critico
JST,JST-RAW-50053689-22,2022-05-19T15:45:00,2022-05-19,1545,,,Marcos Paz,Buenos Aires,Ascenso inicial,"Incidente | SCF-PP (Powerplant failure or malfunction) | Non-Commercial Operations / Flight Training/Instructional / Dual | Marcos Paz, Buenos Aires",SCF-PP (Powerplant failure or malfunction),Tecnico,,LV-BRI,,,,,,-34.71222,-58.87388,0,0,Alto
JST,JST-RAW-58320078-22,2022-06-07T13:12:00,2022-06-07,1312,,,Aeroparque Jorge Newbery (SABE),Buenos Aires,Aterrizaje,"Incidente | ARC (Abnormal runway contact) | Commercial Air Transport / Non-Scheduled / Airline (domestic) | Aeroparque Jorge Newbery (SABE), Buenos Aires",ARC (Abnormal runway contact),Pista,,LV-IYQ,,,,,,-34.55972,-58.415,0,0,Alto
JST,JST-RAW-59370193-22,2022-06-12T18:30:00,2022-06-12,1830,,,Hersilia,Santa Fe,Ascenso inicial,"Incidente | SCF-PP (Powerplant failure or malfunction) | Non-Commercial Operations / Flight Training/Instructional / Other | Hersilia, Santa Fe",SCF-PP (Powerplant failure or malfunction),Tecnico,,LV-ZEY,,,,,,-30.07777,-61.92583,0,0,Alto
JST,JST-RAW-61313032-22,2022-06-15T18:30:00,2022-06-15,1830,,,El Tránsito,Corrientes,En vuelo,"Accidente | LOC-I (Loss of control - inflight) | Non-Commercial Operations / Pleasure / Otros | El Tránsito, Corrientes",LOC-I (Loss of control - inflight),Operacion,,LV-HUQ,,,,,,-28.41666,-57.7,0,0,Critico
JST,JST-RAW-66227559-22,2022-06-17T13:10:00,2022-06-17,1310,,,Fernandópolis,Sao Pablo,Aterrizaje,"Accidente | RE (Runway Excursion) | Non-Commercial Operations / Flight Training/Instructional / Check | Fernandópolis, Sao Pablo",RE (Runway Excursion),Pista,,PP-GEJ,,,,,,-20.27666,-50.21388,0,0,Alto
JST,JST-RAW-66817513-22,2022-07-01T17:10:00,2022-07-01,1710,,,Río Grande,Antártida E Islas Del Atlántico Sur,En tierra,"Accidente | SCF-NP (System/component failure or malfunction (No Powerplant), F-POST (Fire/smoke Post-Impact) | Commercial Air Transport / Non-Scheduled / Air Ambulance | Río Grande, Tierra Del Fuego, Antártida E Islas Del Atlántico Sur","SCF-NP (System/component failure or malfunction (No Powerplant), F-POST (Fire/smoke Post-Impact)",Seguridad operacional,,LV-BPA,,,,,,-53.78055,-67.7625,0,0,Critico
JST,JST-RAW-68409960-22,2022-07-05T18:45:00,2022-07-05,1845,,,Batan,Buenos Aires,En vuelo,"Accidente | SCF-NP (System/component failure or malfunction (No Powerplant) | Non-Commercial Operations / Pleasure / Otros | Batan, Buenos Aires",SCF-NP (System/component failure or malfunction (No Powerplant),Tecnico,,LV-JHQ,,,,,,-38.01166,-57.6775,0,0,Alto
JST,JST-RAW-72420628-22,2022-07-14T16:00:00,2022-07-14,1600,,,Coronel Olmedo,Cordoba,En vuelo,"Incidente | SCF-NP (System/component failure or malfunction (No Powerplant) | Non-Commercial Operations / Flight Training/Instructional / Acrobatics | Coronel Olmedo, Cordoba",SCF-NP (System/component failure or malfunction (No Powerplant),Tecnico,,LV-AST,,,,,,-31.45166,-64.075,0,0,Alto
JST,JST-RAW-75889825-22,2022-07-22T20:00:00,2022-07-22,2000,,,General Rodriguez,Buenos Aires,En vuelo,"Accidente | UNK (Unknown o undetermined) | Non-Commercial Operations / Pleasure / Local | General Rodriguez, Buenos Aires",UNK (Unknown o undetermined),Operacion,,LV-WMB,,,,,,-34.68861,-58.955,0,0,Bajo
JST,JST-RAW-90042303-23,2022-07-26T21:30:00,2022-07-26,2130,,,Trinidad,Casanare,Maniobra a baja altura,"Accidente | Specialised Operations / Aerial Work / Agricultural | Trinidad, Casanare",Accidente,Operacion,,HK1207,,,,,,5.409166,-71.66111,0,0,Alto
JST,JST-RAW-95708560-24,2022-07-29T16:00:00,2022-07-29,1600,,,Cordoba,Cordoba,En vuelo,"Incidente grave | MED (Medical) | Commercial Air Transport / Non-Scheduled / Airline (domestic) | Cordoba, Cordoba",MED (Medical),Operacion,,LV-IVN,,,,,,-31.31,-64.20833,0,0,Medio
JST,JST-RAW-82971366-22,2022-08-09T16:53:00,2022-08-09,1653,,,Santa Fe,Santa Fe,En vuelo,"Accidente | LOC-I (Loss of control - inflight) | Non-Commercial Operations / Flight Training/Instructional / Other | Santa Fe, Santa Fe",LOC-I (Loss of control - inflight),Operacion,,LV-NIG,,,,,,-33.34388,-62.05277,0,0,Critico
JST,JST-RAW-83752541-22,2022-08-11T17:50:00,2022-08-11,1750,,,Coronel Olmedo,Buenos Aires,En vuelo,"Accidente | SCF-NP (System/component failure or malfunction (No Powerplant) | Non-Commercial Operations / Flight Training/Instructional / Other | Coronel Olmedo, Buenos Aires",SCF-NP (System/component failure or malfunction (No Powerplant),Tecnico,,LV-OOJ,,,,,,-31.45166,-64.075,0,0,Alto
JST,JST-RAW-84997038-22,2022-08-13T20:10:00,2022-08-13,2010,,,Malargue,Mendoza,Aterrizaje,"Incidente | ARC (Abnormal runway contact) | Non-Commercial Operations / Flight Training/Instructional / Other | Malargue, Mendoza",ARC (Abnormal runway contact),Pista,,LV-CHY,,,,,,-35.49361,-69.57472,0,0,Alto
JST,JST-RAW-84927571-22,2022-08-15T15:25:00,2022-08-15,1525,,,Morón,Buenos Aires,Rodaje,"Incidente | GCOL (Ground Collision) | Non-Commercial Operations / Flight Training/Instructional / Other | Morón, Buenos Aires",GCOL (Ground Collision),Operacion,,LV-CRR,,,,,,-34.67916,-58.64361,0,0,Alto
JST,JST-RAW-87179955-22,2022-08-20T21:50:00,2022-08-20,2150,,,Rosario de la Frontera,Salta,Aterrizaje,"Accidente | ARC (Abnormal runway contact), SCF-NP (System/component failure or malfunction (No Powerplant) | Non-Commercial Operations / Flight Training/Instructional / Other | Rosario de la Frontera, Salta","ARC (Abnormal runway contact), SCF-NP (System/component failure or malfunction (No Powerplant)",Pista,,LV-LFM,,,,,,-25.82611,-64.96305,0,0,Alto
JST,JST-RAW-31587410-24,2022-08-25T15:45:00,2022-08-25,1545,,,San Pedro,Buenos Aires,Maniobra a baja altura,"Accidente | LALT (Low altitude operations) | Non-Commercial Operations / Flight Training/Instructional / Other | San Pedro, Buenos Aires",LALT (Low altitude operations),Operacion,,LV-JWI,,,,,,-33.52361,-59.72694,0,0,Alto
JST,JST-RAW-103748642-22,2022-09-03T12:00:00,2022-09-03,1200,,,Ushuaia,Antártida E Islas Del Atlántico Sur,Aterrizaje,"Incidente | RE (Runway Excursion) | Commercial Air Transport / Scheduled / Airline (domestic) | Ushuaia, Tierra Del Fuego, Antártida E Islas Del Atlántico Sur",RE (Runway Excursion),Pista,,LV-GKP,,,,,,-54.83955,-68.31443,0,0,Alto
JST,JST-RAW-94709410-22,2022-09-07T16:45:00,2022-09-07,1645,,,Morón,Buenos Aires,En vuelo,"Incidente | F-NI (Fire/smoke non-impact) | Non-Commercial Operations / Flight Training/Instructional / Other | Morón, Buenos Aires",F-NI (Fire/smoke non-impact),Seguridad operacional,,LV-CGD,,,,,,-34.67916,-58.64277,0,0,Alto
JST,JST-RAW-96387208-22,2022-09-10T16:24:00,2022-09-10,1624,,,Laguna Larga,Cordoba,Ascenso inicial,"Incidente | SCF-PP (Powerplant failure or malfunction) | Non-Commercial Operations / Pleasure / Local | Laguna Larga, Cordoba",SCF-PP (Powerplant failure or malfunction),Tecnico,,LV-FZI,,,,,,-31.89277,-63.97416,0,0,Alto
JST,JST-RAW-96407094-22,2022-09-11T19:45:00,2022-09-11,1945,,,Villa Maria,Cordoba,Rodaje,"Incidente | GCOL (Ground Collision) | Non-Commercial Operations / Pleasure / Local, Non-Commercial Operations / Pleasure / Local | Villa Maria, Cordoba",GCOL (Ground Collision),Operacion,,"LV-HBR, LV-IWD",,,,,,-32.32666,-63.22833,0,0,Alto
JST,JST-RAW-100639940-22,2022-09-20T12:00:00,2022-09-20,1200,,,Apóstoles,Misiones,En vuelo,"Accidente | Non-Commercial Operations / Relocation / Delivery | Apóstoles, Misiones",Accidente,Operacion,,LV-BCJ,,,,,,-27.90333,-55.76555,0,0,Alto
JST,JST-RAW-19229436-24,2022-09-22T15:50:00,2022-09-22,1550,,,Puerta de Ávalos,Jujuy,En vuelo,"Accidente | SCF-NP (System/component failure or malfunction (No Powerplant) | Non-Commercial Operations / Pleasure / Local | Puerta de Ávalos, Jujuy",SCF-NP (System/component failure or malfunction (No Powerplant),Tecnico,,LV-OIB,,,,,,-24.31444,-64.24694,0,0,Alto
JST,JST-RAW-101897044-22,2022-09-25T21:10:00,2022-09-25,2110,,,Morteros,Cordoba,En vuelo,"Accidente | SCF-NP (System/component failure or malfunction (No Powerplant) | Non-Commercial Operations / Pleasure / Local | Morteros, Cordoba",SCF-NP (System/component failure or malfunction (No Powerplant),Tecnico,,LV-JED,,,,,,-30.40611,-62.18055,0,0,Alto
JST,JST-RAW-26650812-24,2022-10-12T21:20:00,2022-10-12,2120,,,Jesús María,Cordoba,En vuelo,"Accidente | UNK (Unknown o undetermined) | Unknown / Unknown / Se desconoce | Jesús María, Cordoba",UNK (Unknown o undetermined),Operacion,,S/M,,,,,,-30.98444,-64.0725,0,0,Bajo
JST,JST-RAW-110785529-22,2022-10-16T19:20:00,2022-10-16,1920,,,Morón,Buenos Aires,Aterrizaje,"Accidente | SCF-NP (System/component failure or malfunction (No Powerplant), RE (Runway Excursion) | Non-Commercial Operations / Pleasure / Otros | Morón, Buenos Aires","SCF-NP (System/component failure or malfunction (No Powerplant), RE (Runway Excursion)",Pista,,LV-S114,,,,,,-34.67583,-58.64194,0,0,Alto
JST,JST-RAW-113211779-22,2022-10-23T14:50:00,2022-10-23,1450,,,Mercedes,Buenos Aires,En vuelo,"Accidente | LOC-I (Loss of control - inflight) | Non-Commercial Operations / Pleasure / Otros | Mercedes, Buenos Aires",LOC-I (Loss of control - inflight),Operacion,,LV-IUG,,,,,,-34.63611,-59.45888,0,0,Critico
JST,JST-RAW-115512320-22,2022-10-28T01:20:00,2022-10-28,0120,,,Ministro Pistarini -Ezeiza (SAEZ),Buenos Aires,Ascenso inicial,"Incidente grave | SCF-PP (Powerplant failure or malfunction) | Commercial Air Transport / Non-Scheduled / Airline (internacional) | Ministro Pistarini -Ezeiza (SAEZ), Buenos Aires",SCF-PP (Powerplant failure or malfunction),Tecnico,,N-765AN,,,,,,-34.82222,-58.53583,0,0,Alto
JST,JST-RAW-110420253-24,2022-10-28T20:50:00,2022-10-28,2050,,,La Plata,Buenos Aires,En vuelo,"Accidente | SCF-NP (System/component failure or malfunction (No Powerplant) | Non-Commercial Operations / Pleasure / Otros | La Plata, Buenos Aires",SCF-NP (System/component failure or malfunction (No Powerplant),Tecnico,,LV-JJJ,,,,,,-34.96888,-57.89277,0,0,Alto
JST,JST-RAW-119495543-22,2022-11-05T21:40:00,2022-11-05,2140,,,Bragado,Buenos Aires,Maniobra a baja altura,"Accidente | LALT (Low altitude operations) | Non-Commercial Operations / Demostration / Demostration | Bragado, Buenos Aires",LALT (Low altitude operations),Operacion,,LV-NRY,,,,,,-35.14555,-60.48,0,0,Alto
JST,JST-RAW-126759547-22,2022-11-19T20:20:00,2022-11-19,2020,,,Batan,Buenos Aires,Aterrizaje,"Accidente | ARC (Abnormal runway contact) | Non-Commercial Operations / Flight Training/Instructional / Other | Batan, Buenos Aires",ARC (Abnormal runway contact),Pista,,LV-FCB,,,,,,-38.01305,-57.67944,0,0,Alto
JST,JST-RAW-126729449-22,2022-11-19T22:10:00,2022-11-19,2210,,,Coronel Vidal,Buenos Aires,Despegue,"Accidente | CTOL (Collision with obstacle during take-off and landing) | Non-Commercial Operations / Flight Training/Instructional / Other | Coronel Vidal, Buenos Aires",CTOL (Collision with obstacle during take-off and landing),Operacion,,LV-IKS,,,,,,-37.47138,-57.75861,0,0,Critico
JST,JST-RAW-128134522-22,2022-11-25T18:57:00,2022-11-25,1857,,,General Rodríguez,Buenos Aires,Aterrizaje,"Accidente | ARC (Abnormal runway contact), SCF-NP (System/component failure or malfunction (No Powerplant) | Non-Commercial Operations / Flight Training/Instructional / Other | General Rodríguez, Buenos Aires","ARC (Abnormal runway contact), SCF-NP (System/component failure or malfunction (No Powerplant)",Pista,,LV-BRF,,,,,,-34.67694,-59.03361,0,0,Alto
JST,JST-RAW-131057791-22,2022-12-01T19:55:00,2022-12-01,1955,,,Aeroparque Jorge Newbery (SABE),Buenos Aires,Rodaje,"Incidente | GCOL (Ground Collision) | Commercial Air Transport / Scheduled / Airline (internacional) | Aeroparque Jorge Newbery (SABE), Buenos Aires",GCOL (Ground Collision),Operacion,,PR-MHU,,,,,,-34.55888,-58.41638,0,0,Alto
JST,JST-RAW-132437620-22,2022-12-03T11:00:00,2022-12-03,1100,,,Lima,Buenos Aires,Ascenso inicial,"Accidente | SCF-PP (Powerplant failure or malfunction), LALT (Low altitude operations) | Specialised Operations / Aerial Work / Agricultural | Lima, Buenos Aires","SCF-PP (Powerplant failure or malfunction), LALT (Low altitude operations)",Tecnico,,LV-OGR,,,,,,-33.93416,-59.27972,0,0,Critico
JST,JST-RAW-136178585-22,2022-12-05T17:20:00,2022-12-05,1720,,,PONTA GROSSA,Paraná,Ascenso inicial,"Accidente | SCF-PP (Powerplant failure or malfunction) | Non-Commercial Operations / Flight Training/Instructional / Solo (supervised) | PONTA GROSSA, Paraná",SCF-PP (Powerplant failure or malfunction),Tecnico,,PT-WBH,,,,,,-25.178,-50.132,0,0,Alto
JST,JST-RAW-133386874-22,2022-12-11T13:00:00,2022-12-11,1300,,,Aeroparque Jorge Newbery (SABE),Buenos Aires,Rodaje,"Incidente | GCOL (Ground Collision) | Commercial Air Transport / Non-Scheduled / Airline (internacional), Unknown / Unknown / Se desconoce | Aeroparque Jorge Newbery (SABE), Buenos Aires",GCOL (Ground Collision),Operacion,,"N244JE, TC53",,,,,,-34.56555,-58.4075,0,0,Alto
JST,JST-RAW-196643-23,2022-12-30T22:05:00,2022-12-30,2205,,,La Cumbre,Cordoba,Ascenso inicial,"Accidente | SCF-PP (Powerplant failure or malfunction) | Non-Commercial Operations / Pleasure / Otros | La Cumbre, Cordoba",SCF-PP (Powerplant failure or malfunction),Tecnico,,LV-X431,,,,,,-31.016111,-64.520278,0,0,Alto
JST,JST-RAW-12284361-23,2023-01-17T12:15:00,2023-01-17,1215,,,Cajati,San Pablo,En vuelo,"Accidente | LOC-I (Loss of control - inflight) | Specialised Operations / Aerial Work / Agricultural | Cajati, San Pablo",LOC-I (Loss of control - inflight),Operacion,,PT-XLS,,,,,,-24.714,-48.2,0,0,Critico
JST,JST-RAW-11925282-23,2023-01-31T21:50:00,2023-01-31,2150,,,Achiras,Cordoba,Maniobra a baja altura,"Accidente | LALT (Low altitude operations) | Specialised Operations / Aerial Work / Agricultural | Achiras, Cordoba",LALT (Low altitude operations),Operacion,,LV-CVU,,,,,,-33.179722,-64.989167,0,0,Critico
JST,JST-RAW-12246865-23,2023-02-02T12:00:00,2023-02-02,1200,,,Posadas Gral José de San Martín (SARP),Misiones,Aterrizaje,"Incidente | SCF-NP (System/component failure or malfunction (No Powerplant), RE (Runway Excursion) | Commercial Air Transport / Non-Scheduled / Air Ambulance | Posadas Gral José de San Martín (SARP), Misiones","SCF-NP (System/component failure or malfunction (No Powerplant), RE (Runway Excursion)",Pista,,LV-JJQ,,,,,,-27.391389,-55.970552,0,0,Alto
JST,JST-RAW-12810042-23,2023-02-03T00:00:00,2023-02-03,0000,,,San Fernando,Buenos Aires,Aterrizaje,"Incidente grave | RE (Runway Excursion) | Commercial Air Transport / Non-Scheduled / Airline (domestic) | San Fernando, Buenos Aires",RE (Runway Excursion),Pista,,LV-FVZ,,,,,,-34.453249,-58.5895,0,0,Alto
JST,JST-RAW-13695767-23,2023-02-05T15:00:00,2023-02-05,1500,,,Buena Esperanza,San Luis,Ascenso inicial,"Accidente | SCF-PP (Powerplant failure or malfunction), LALT (Low altitude operations) | Unknown / Unknown / Se desconoce | Buena Esperanza, San Luis","SCF-PP (Powerplant failure or malfunction), LALT (Low altitude operations)",Tecnico,,LV-HIK,,,,,,-34.58888,-65.03833,0,0,Alto
JST,JST-RAW-24070713-23,2023-03-04T22:30:00,2023-03-04,2230,,,Club Planeadores Trenque Lauquen,Buenos Aires,En vuelo,"Accidente | AMAN (Abrupt Maneuvre), LOC-I (Loss of control - inflight) | Non-Commercial Operations / Flight Training/Instructional / Acrobatics | Club Planeadores Trenque Lauquen, Buenos Aires","AMAN (Abrupt Maneuvre), LOC-I (Loss of control - inflight)",Operacion,,LV-X768,,,,,,-36.01416,-62.69222,0,0,Critico
JST,JST-RAW-25829777-23,2023-03-08T14:15:00,2023-03-08,1415,,,Cafayate,Salta,Aterrizaje,"Accidente | ARC (Abnormal runway contact), LOC-G (Loss of control -ground) | Non-Commercial Operations / Pleasure / Local | Cafayate, Salta","ARC (Abnormal runway contact), LOC-G (Loss of control -ground)",Pista,,LV-MFM,,,,,,-26.05555,-65.93694,0,0,Alto
JST,JST-RAW-27153213-23,2023-03-10T23:00:00,2023-03-10,2300,,,Mendoza,Mendoza,Aterrizaje,"Incidente | RE (Runway Excursion) | Non-Commercial Operations / Flight Training/Instructional / Other | Mendoza, Mendoza",RE (Runway Excursion),Pista,,LV-S132,,,,,,-34.76111,-68.36138,0,0,Alto
JST,JST-RAW-22616761-24,2023-03-16T01:10:00,2023-03-16,0110,,,Esquina,Corrientes,En vuelo,"Incidente | SCF-NP (System/component failure or malfunction (No Powerplant) | Specialised Operations / Aerial Work / Other | Esquina, Corrientes",SCF-NP (System/component failure or malfunction (No Powerplant),Tecnico,,LV-WJO,,,,,,-29.66666,-58.88333,0,0,Alto
JST,JST-RAW-44726864-25,2023-03-18T14:33:00,2023-03-18,1433,,,La Plata,Buenos Aires,Ascenso inicial,"Accidente | SCF-PP (Powerplant failure or malfunction) | Non-Commercial Operations / Flight Training/Instructional / Other | La Plata, Buenos Aires",SCF-PP (Powerplant failure or malfunction),Tecnico,,AR-VNT-798,,,,,,-34.96333,-57.8925,0,0,Alto
JST,JST-RAW-22620434-24,2023-03-30T11:30:00,2023-03-30,1130,,,Posadas Gral José de San Martín (SARP),Misiones,En vuelo,"Incidente | SCF-NP (System/component failure or malfunction (No Powerplant) | Commercial Air Transport / Scheduled / Airline (domestic) | Posadas Gral José de San Martín (SARP), Misiones",SCF-NP (System/component failure or malfunction (No Powerplant),Tecnico,,LV-KAH,,,,,,-27.385,-55.97,0,0,Alto
JST,JST-RAW-37023615-23,2023-04-03T18:20:00,2023-04-03,1820,,,Ezpeleta,Buenos Aires,En vuelo,"Accidente | LOC-I (Loss of control - inflight) | Non-Commercial Operations / Test Flight / Post Maintenance Functional Check Flight | Ezpeleta, Buenos Aires",LOC-I (Loss of control - inflight),Operacion,,LV-X695,,,,,,-34.74361,-58.20666,0,0,Critico
JST,JST-RAW-39839692-23,2023-04-10T18:10:00,2023-04-10,1810,,,2882 EL Guri,Cordoba,Aterrizaje,"Accidente | ARC (Abnormal runway contact) | Non-Commercial Operations / Bussiness / Bussiness | 2882 EL Guri, Cordoba",ARC (Abnormal runway contact),Pista,,LV-KGT,,,,,,-29.9225,-63.55833,0,0,Alto
JST,JST-RAW-42044921-23,2023-04-15T20:00:00,2023-04-15,2000,,,Gualeguay,Entre Rios,Maniobra a baja altura,"Accidente | LALT (Low altitude operations) | Specialised Operations / Aerial Work / Agricultural | Gualeguay, Entre Rios",LALT (Low altitude operations),Operacion,,LV-OHT,,,,,,-33.18416,-59.44,0,0,Critico
JST,JST-RAW-45501611-23,2023-04-21T13:10:00,2023-04-21,1310,,,Gral. M. M. de Guemes (SASA),Salta,En vuelo,"Accidente | SCF-NP (System/component failure or malfunction (No Powerplant) | Commercial Air Transport / Non-Scheduled / Airline (domestic) | Gral. M. M. de Guemes (SASA), Salta",SCF-NP (System/component failure or malfunction (No Powerplant),Tecnico,,LV-WPM,,,,,,-24.85972,-65.48861,0,0,Alto
JST,JST-RAW-01477104-25,2023-04-28T14:25:00,2023-04-28,1425,,,Metán,Salta,En vuelo,"Accidente | LOC-I (Loss of control - inflight) | Non-Commercial Operations / Flight Training/Instructional / Other | Metán, Salta",LOC-I (Loss of control - inflight),Operacion,,LV-X676,,,,,,-25.52166,-64.9725,0,0,Critico
JST,JST-RAW-48952747-23,2023-04-29T21:30:00,2023-04-29,2130,,,La Cumbre,Cordoba,Ascenso inicial,"Incidente | SCF-PP (Powerplant failure or malfunction) | Non-Commercial Operations / Pleasure / Local | La Cumbre, Cordoba",SCF-PP (Powerplant failure or malfunction),Tecnico,,LV-X647,,,,,,-30.99805,-64.53583,0,0,Alto
JST,JST-RAW-50323535-23,2023-05-03T16:00:00,2023-05-03,1600,,,General Rodriguez,Buenos Aires,Ascenso inicial,"Incidente | SCF-PP (Powerplant failure or malfunction) | Non-Commercial Operations / Pleasure / Otros | General Rodriguez, Buenos Aires",SCF-PP (Powerplant failure or malfunction),Tecnico,,LV-CMN,,,,,,-34.74111,-59.00388,0,0,Alto
JST,JST-RAW-98933552-23,2023-05-04T19:05:00,2023-05-04,1905,,,Aeródromo Privado Chacras del Faro,Chubut,Aterrizaje,"Accidente | RE (Runway Excursion) | Non-Commercial Operations / Flight Training/Instructional / Other | Aeródromo Privado Chacras del Faro, Chubut",RE (Runway Excursion),Pista,,LV-LDR,,,,,,-45.77833,-67.37361,0,0,Alto
JST,JST-RAW-51598653-23,2023-05-06T14:00:00,2023-05-06,1400,,,San José,Cordoba,Aterrizaje,"Accidente | SCF-NP (System/component failure or malfunction (No Powerplant), RE (Runway Excursion) | Specialised Operations / Aerial Work / Agricultural | San José, Cordoba","SCF-NP (System/component failure or malfunction (No Powerplant), RE (Runway Excursion)",Pista,,LV-MNB,,,,,,-31.95222,-65.38138,0,0,Alto
JST,JST-RAW-51597322-23,2023-05-06T18:00:00,2023-05-06,1800,,,Allen,Rio Negro,Maniobra a baja altura,"Accidente | LALT (Low altitude operations) | Non-Commercial Operations / Demostration / Demostration | Allen, Rio Negro",LALT (Low altitude operations),Operacion,,LV-X722,,,,,,-38.9575,-67.80611,0,0,Alto
JST,JST-RAW-51844797-23,2023-05-07T20:30:00,2023-05-07,2030,,,Pigüé,Buenos Aires,En vuelo,"Accidente | LOC-I (Loss of control - inflight) | Non-Commercial Operations / Flight Training/Instructional / Other | Pigüé, Buenos Aires",LOC-I (Loss of control - inflight),Operacion,,LV-YHT,,,,,,-37.60611,-62.38194,0,0,Critico
JST,JST-RAW-58462912-23,2023-05-12T18:38:00,2023-05-12,1838,,,San Fernando,Buenos Aires,Ascenso inicial,"Incidente | SCF-PP (Powerplant failure or malfunction), FUEL (Fuel related) | Commercial Air Transport / Non-Scheduled / Air Ambulance | San Fernando, Buenos Aires","SCF-PP (Powerplant failure or malfunction), FUEL (Fuel related)",Tecnico,,LV-FUK,,,,,,-34.455,-58.59138,0,0,Alto
JST,JST-RAW-58147231-23,2023-05-22T10:53:00,2023-05-22,1053,,,Ministro Pistarini -Ezeiza (SAEZ),Buenos Aires,En vuelo,"Incidente | SCF-NP (System/component failure or malfunction (No Powerplant) | Commercial Air Transport / Scheduled / Airline (internacional) | Ministro Pistarini -Ezeiza (SAEZ), Buenos Aires",SCF-NP (System/component failure or malfunction (No Powerplant),Tecnico,,N78008,,,,,,-34.81722,-58.53861,0,0,Alto
JST,JST-RAW-67901159-23,2023-06-10T15:30:00,2023-06-10,1530,,,Isla Martin Garcia,Buenos Aires,Aterrizaje,"Accidente | ARC (Abnormal runway contact), SCF-NP (System/component failure or malfunction (No Powerplant) | Non-Commercial Operations / Flight Training/Instructional / Other | Isla Martin Garcia, Buenos Aires","ARC (Abnormal runway contact), SCF-NP (System/component failure or malfunction (No Powerplant)",Pista,,LV-LPI,,,,,,-34.18222,-58.24972,0,0,Alto
JST,JST-RAW-71384627-23,2023-06-11T20:30:00,2023-06-11,2030,,,General Villegas,Buenos Aires,Aterrizaje,"Accidente | ARC (Abnormal runway contact) | Non-Commercial Operations / Pleasure / Otros | General Villegas, Buenos Aires",ARC (Abnormal runway contact),Pista,,LV-LMG,,,,,,-34.97722,-61.02083,0,0,Alto
JST,JST-RAW-70581035-23,2023-06-18T21:00:00,2023-06-18,2100,,,San Carlos de Bolívar,Buenos Aires,En vuelo,"Accidente | SCF-NP (System/component failure or malfunction (No Powerplant) | Non-Commercial Operations / Pleasure / Local | San Carlos de Bolívar, Buenos Aires",SCF-NP (System/component failure or malfunction (No Powerplant),Tecnico,,LV-KBH,,,,,,-36.24111,-61.14111,0,0,Alto
JST,JST-RAW-74578608-23,2023-06-28T19:00:00,2023-06-28,1900,,,Gualeguay,Entre Rios,Ascenso inicial,"Accidente | SCF-PP (Powerplant failure or malfunction) | Non-Commercial Operations / Pleasure / Otros | Gualeguay, Entre Rios",SCF-PP (Powerplant failure or malfunction),Tecnico,,LV-JQA,,,,,,-33.31805,-59.96722,0,0,Alto
JST,JST-RAW-75901059-23,2023-07-01T15:30:00,2023-07-01,1530,,,San Nicolás de Los Arroyos,Buenos Aires,Aterrizaje,"Accidente | ARC (Abnormal runway contact) | Non-Commercial Operations / Pleasure / Otros | San Nicolás de Los Arroyos, Buenos Aires",ARC (Abnormal runway contact),Pista,,LV-IAP,,,,,,-33.39083,-60.19527,0,0,Alto
JST,JST-RAW-82756806-23,2023-07-14T17:00:00,2023-07-14,1700,,,Corrientes,Corrientes,Rodaje,"Incidente | GCOL (Ground Collision) | Non-Commercial Operations / Pleasure / Otros, Commercial Air Transport / Scheduled / Airline (domestic) | Corrientes, Corrientes",GCOL (Ground Collision),Operacion,,"LV-AXM, LV-KCE",,,,,,-27.445,-58.76166,0,0,Alto
JST,JST-RAW-82761122-23,2023-07-15T19:00:00,2023-07-15,1900,,,Rio Tercero,Cordoba,Rodaje,"Incidente | GCOL (Ground Collision) | Non-Commercial Operations / Pleasure / Otros | Rio Tercero, Cordoba",GCOL (Ground Collision),Operacion,,LV-FQS,,,,,,-32.17277,-64.08833,0,0,Alto
JST,JST-RAW-113231830-23,2023-08-01T19:30:00,2023-08-01,1930,,,Coronel Olmedo,Cordoba,En vuelo,"Incidente grave | SCF-NP (System/component failure or malfunction (No Powerplant) | Non-Commercial Operations / Relocation / Ferry | Coronel Olmedo, Cordoba",SCF-NP (System/component failure or malfunction (No Powerplant),Tecnico,,LV-KFP,,,,,,-31.48777,-64.14194,0,0,Alto
JST,JST-RAW-90996017-23,2023-08-05T20:10:00,2023-08-05,2010,,,General Rodriguez,Buenos Aires,En vuelo,"Accidente | UNK (Unknown o undetermined) | Non-Commercial Operations / Flight Training/Instructional / Dual | General Rodriguez, Buenos Aires",UNK (Unknown o undetermined),Operacion,,LV-NRF,,,,,,-34.666,-59.042,0,0,Bajo
JST,JST-RAW-91187464-23,2023-08-06T17:39:00,2023-08-06,1739,,,Bariloche,Rio Negro,En vuelo,"Incidente | SCF-NP (System/component failure or malfunction (No Powerplant) | Commercial Air Transport / Non-Scheduled / Airline (internacional) | Bariloche, Rio Negro",SCF-NP (System/component failure or malfunction (No Powerplant),Tecnico,,PP-CGG,,,,,,-41.151,-71.157,0,0,Alto
JST,JST-RAW-91787267-23,2023-08-08T10:25:00,2023-08-08,1025,,,San Fernando,Buenos Aires,Rodaje,"Incidente | SCF-NP (System/component failure or malfunction (No Powerplant), LOC-G (Loss of control -ground) | Non-Commercial Operations / Relocation / Positioning | San Fernando, Buenos Aires","SCF-NP (System/component failure or malfunction (No Powerplant), LOC-G (Loss of control -ground)",Tecnico,,LV-WDR,,,,,,-34.455,-58.583,0,0,Alto
JST,JST-RAW-94451761-23,2023-08-14T12:50:00,2023-08-14,1250,,,Piquete Cabado,Salta,En vuelo,"Accidente | SCF-NP (System/component failure or malfunction (No Powerplant) | Non-Commercial Operations / Relocation / Delivery | Piquete Cabado, Salta",SCF-NP (System/component failure or malfunction (No Powerplant),Tecnico,,LV-FKN,,,,,,-24.806,-64.18,0,0,Alto
JST,JST-RAW-30773082-25,2023-08-24T20:15:00,2023-08-24,2015,,,El Dorado,Misiones,Ascenso inicial,"Accidente | FUEL (Fuel related) | Non-Commercial Operations / Flight Training/Instructional / Dual | El Dorado, Misiones",FUEL (Fuel related),Tecnico,,LV-CLJ,,,,,,-26.396,-54.574,0,0,Alto
JST,JST-RAW-100035130-23,2023-08-26T16:30:00,2023-08-26,1630,,,SALADILLO,Buenos Aires,Aterrizaje,"Accidente | SCF-NP (System/component failure or malfunction (No Powerplant), RE (Runway Excursion) | Non-Commercial Operations / Pleasure / Local | SALADILLO, Buenos Aires","SCF-NP (System/component failure or malfunction (No Powerplant), RE (Runway Excursion)",Pista,,LV-S135,,,,,,-35.602,-59.817,0,0,Alto
JST,JST-RAW-100899257-23,2023-08-29T15:50:00,2023-08-29,1550,,,Belen de Escobar,Buenos Aires,Aterrizaje,"Accidente | ARC (Abnormal runway contact) | Non-Commercial Operations / Flight Training/Instructional / Other | Belen de Escobar, Buenos Aires",ARC (Abnormal runway contact),Pista,,LV-HVZ,,,,,,-34.298,-58.798,0,0,Alto
JST,JST-RAW-102007501-23,2023-08-30T18:20:00,2023-08-30,1820,,,Villa Gral. Belgrano,Cordoba,Aterrizaje,"Incidente | RE (Runway Excursion) | Non-Commercial Operations / Flight Training/Instructional / Other | Villa Gral. Belgrano, Cordoba",RE (Runway Excursion),Pista,,LV-GJJ,,,,,,-31.964,-64.564,0,0,Alto
JST,JST-RAW-109789817-23,2023-09-16T17:45:00,2023-09-16,1745,,,Ministro Pistarini -Ezeiza (SAEZ),Buenos Aires,En vuelo,"Incidente | SCF-NP (System/component failure or malfunction (No Powerplant) | Non-Commercial Operations / Pleasure / Otros | Ministro Pistarini -Ezeiza (SAEZ), Buenos Aires",SCF-NP (System/component failure or malfunction (No Powerplant),Tecnico,,LV-JZQ,,,,,,-34.821,-58.535,0,0,Alto
JST,JST-RAW-109799769-23,2023-09-17T12:30:00,2023-09-17,1230,,,San Luis,San Luis,En tierra,"Accidente | F-POST (Fire/smoke Post-Impact), LOC-I (Loss of control - inflight) | Non-Commercial Operations / Pleasure / Otros | San Luis, San Luis","F-POST (Fire/smoke Post-Impact), LOC-I (Loss of control - inflight)",Seguridad operacional,,LV-GLQ,,,,,,-33.275,-66.35,0,0,Critico
JST,JST-RAW-112416337-23,2023-09-21T19:30:00,2023-09-21,1930,,,Buenos Aires,Buenos Aires,Rodaje,"Accidente | LOC-G (Loss of control -ground) | Non-Commercial Operations / Flight Training/Instructional / Dual | Buenos Aires, Buenos Aires",LOC-G (Loss of control -ground),Operacion,,LV-ZMN,,,,,,-35.638,-60.461,0,0,Alto
JST,JST-RAW-113031542-23,2023-09-23T20:20:00,2023-09-23,2020,,,San Fernando,Buenos Aires,Rodaje,"Incidente | LOC-G (Loss of control -ground) | Non-Commercial Operations / Pleasure / Otros | San Fernando, Buenos Aires",LOC-G (Loss of control -ground),Operacion,,LV-COV,,,,,,-34.455,-58.591,0,0,Alto
JST,JST-RAW-114756085-23,2023-09-27T00:00:00,2023-09-27,0000,,,Islas Malvinas - Rosario (SAAR),Santa Fe,Ascenso inicial,"Accidente | ARC (Abnormal runway contact), SCF-PP (Powerplant failure or malfunction) | Non-Commercial Operations / Flight Training/Instructional / Dual | Islas Malvinas - Rosario (SAAR), Santa Fe","ARC (Abnormal runway contact), SCF-PP (Powerplant failure or malfunction)",Pista,,LV-ONS,,,,,,-32.903,-60.784,0,0,Alto
JST,JST-RAW-115025976-23,2023-09-27T21:00:00,2023-09-27,2100,,,San Cayetano,Buenos Aires,Maniobra a baja altura,"Accidente | LALT (Low altitude operations) | Non-Commercial Operations / Test Flight / Post Maintenance Functional Check Flight | San Cayetano, Buenos Aires",LALT (Low altitude operations),Operacion,,LV-OHU,,,,,,-38.323,-59.427,0,0,Alto
JST,JST-RAW-118708414-23,2023-09-30T21:45:00,2023-09-30,2145,,,Rivadavia,Mendoza,Ascenso inicial,"Incidente | SCF-PP (Powerplant failure or malfunction) | Non-Commercial Operations / Pleasure / Local | Rivadavia, Mendoza",SCF-PP (Powerplant failure or malfunction),Tecnico,,LV-UX079,,,,,,-33.226,-68.489,0,0,Alto
JST,JST-RAW-119797612-23,2023-10-05T08:40:00,2023-10-05,0840,,,Ministro Pistarini -Ezeiza (SAEZ),Buenos Aires,Ascenso inicial,"Incidente | SCF-PP (Powerplant failure or malfunction) | Commercial Air Transport / Scheduled / Airline (domestic) | Ministro Pistarini -Ezeiza (SAEZ), Buenos Aires",SCF-PP (Powerplant failure or malfunction),Tecnico,,LV-KHO,,,,,,-34.559,-58.415,0,0,Alto
JST,JST-RAW-1740669-24,2023-10-08T21:40:00,2023-10-08,2140,,,Chascomus,Buenos Aires,Ascenso inicial,"Incidente | FUEL (Fuel related) | Specialised Operations / Aerial Work / Parachute drop | Chascomus, Buenos Aires",FUEL (Fuel related),Tecnico,,LV-GYC,,,,,,-35.542,-58.051,0,0,Alto
JST,JST-RAW-134231883-23,2023-11-05T11:40:00,2023-11-05,1140,,,Ingeniero Taravella - Córdoba (SACO),Cordoba,Ascenso inicial,"Incidente | SCF-NP (System/component failure or malfunction (No Powerplant), FUEL (Fuel related) | Commercial Air Transport / Scheduled / Airline (domestic) | Ingeniero Taravella - Córdoba (SACO), Cordoba","SCF-NP (System/component failure or malfunction (No Powerplant), FUEL (Fuel related)",Tecnico,,LV-GOO,,,,,,-31.31,-64.208,0,0,Alto
JST,JST-RAW-151508998-23,2023-11-06T11:20:00,2023-11-06,1120,,,Las Heras,Mendoza,Maniobra a baja altura,"Incidente | LALT (Low altitude operations), LOC-I (Loss of control - inflight) | Non-Commercial Operations / Pleasure / Otros | Las Heras, Mendoza","LALT (Low altitude operations), LOC-I (Loss of control - inflight)",Operacion,,LQ-BFB,,,,,,-32.772,-69.931,0,0,Critico
JST,JST-RAW-134235328-23,2023-11-08T21:30:00,2023-11-08,2130,,,Casilda,Santa Fe,Aterrizaje,"Accidente | ARC (Abnormal runway contact) | Non-Commercial Operations / Flight Training/Instructional / Other | Casilda, Santa Fe",ARC (Abnormal runway contact),Pista,,LV-OLZ,,,,,,-33.065,-61.206,0,0,Alto
JST,JST-RAW-135569176-23,2023-11-12T19:30:00,2023-11-12,1930,,,Villa Cañás,Santa Fe,En vuelo,"Accidente | LOC-I (Loss of control - inflight) | Non-Commercial Operations / Demostration / Demostration | Villa Cañás, Santa Fe",LOC-I (Loss of control - inflight),Operacion,,LV-X468,,,,,,-33.959,-61.626,0,0,Critico
JST,JST-RAW-135571047-23,2023-11-13T23:15:00,2023-11-13,2315,,,Villa Ojo de Agua,Santiago Del Estero,Aterrizaje,"Incidente grave | ARC (Abnormal runway contact) | Non-Commercial Operations / Bussiness / Bussiness | Villa Ojo de Agua, Santiago Del Estero",ARC (Abnormal runway contact),Pista,,LQ-FKA,,,,,,-29.51,-63.696,0,0,Alto
JST,JST-RAW-145768499-23,2023-11-22T13:40:00,2023-11-22,1340,,,Morón,Buenos Aires,En vuelo,"Incidente | F-NI (Fire/smoke non-impact) | Non-Commercial Operations / Flight Training/Instructional / Dual | Morón, Buenos Aires",F-NI (Fire/smoke non-impact),Seguridad operacional,,LV-S048,,,,,,-34.678,-58.643,0,0,Alto
JST,JST-RAW-140796134-23,2023-11-26T21:30:00,2023-11-26,2130,,,Río Paraná,Buenos Aires,Maniobra a baja altura,"Accidente | LALT (Low altitude operations) | Non-Commercial Operations / Pleasure / Otros | Río Paraná, altura Ramallo, Buenos Aires",LALT (Low altitude operations),Operacion,,LV-FQJ,,,,,,-32.497,-59.973,0,0,Alto
JST,JST-RAW-141422183-23,2023-11-27T22:52:00,2023-11-27,2252,,,General Rodríguez,Buenos Aires,Aterrizaje,"Accidente | ARC (Abnormal runway contact) | Non-Commercial Operations / Pleasure / Otros | General Rodríguez, Buenos Aires",ARC (Abnormal runway contact),Pista,,LV-X429,,,,,,-34.679,-59.034,0,0,Alto
JST,JST-GODOY-20231128,2023-11-28T11:20:00,2023-11-28,1120,SAME,El Plumerillo,Godoy Cruz,Mendoza,Ascenso inicial,Perdida de potencia por falla de motor despues del despegue y aterrizaje de emergencia en zona urbana de Godoy Cruz.,Falla de motor,Tecnico,Tecnam P2002 Sierra,LV-S077,Instruccion,VMC,Dia,10.0,5.0,-32.8317,-68.7929,0,0,Alto
JST,JST-RAW-147824849-23,2023-12-12T12:00:00,2023-12-12,1200,,,Cordoba,Cordoba,Ascenso inicial,"Incidente | SCF-PP (Powerplant failure or malfunction) | Non-Commercial Operations / Flight Training/Instructional / Other | Cordoba, Cordoba",SCF-PP (Powerplant failure or malfunction),Tecnico,,LV-CGM,,,,,,-31.482,-64.182,0,0,Alto
JST,JST-RAW-149632535-23,2023-12-16T10:20:00,2023-12-16,1020,,,Cutral-Co,Neuquen,En tierra,"Accidente | F-POST (Fire/smoke Post-Impact), LOC-I (Loss of control - inflight) | Non-Commercial Operations / Flight Training/Instructional / Dual | Cutral-Co, Neuquen","F-POST (Fire/smoke Post-Impact), LOC-I (Loss of control - inflight)",Seguridad operacional,,LV-GHP,,,,,,-38.939,-69.265,0,0,Critico
JST,JST-RAW-149872133-23,2023-12-17T06:32:00,2023-12-17,0632,,,Ministro Pistarini -Ezeiza (SAEZ),Buenos Aires,En tierra,"Incidente | RAMP (Ground Handling) | Commercial Air Transport / Scheduled / Airline (internacional) | Ministro Pistarini -Ezeiza (SAEZ), Buenos Aires",RAMP (Ground Handling),Seguridad operacional,,CC-BFR,,,,,,-34.822,-58.535,0,0,Medio
JST,JST-RAW-152024017-23,2023-12-21T21:30:00,2023-12-21,2130,,,Lincoln,Buenos Aires,Aterrizaje,"Accidente | ARC (Abnormal runway contact) | Non-Commercial Operations / Pleasure / Local | Lincoln, Buenos Aires",ARC (Abnormal runway contact),Pista,,LV-OMR,,,,,,-34.957,-61.531,0,0,Alto
JST,JST-RAW-152814990-23,2023-12-23T22:27:00,2023-12-23,2227,,,San Fernando,Buenos Aires,Ascenso inicial,"Incidente | BIRD (Birdstrike) | Commercial Air Transport / Non-Scheduled / Airline (domestic) | San Fernando, Buenos Aires",BIRD (Birdstrike),Fauna,,LV-GOM,,,,,,-34.455,-58.591,0,0,Alto
JST,JST-RAW-153681384-23,2023-12-27T21:20:00,2023-12-27,2120,,,Ranchos,Buenos Aires,Aterrizaje,"Accidente | RE (Runway Excursion) | Non-Commercial Operations / Flight Training/Instructional / Dual | Ranchos, Buenos Aires",RE (Runway Excursion),Pista,,LV-OMI,,,,,,-35.57,-58.438,0,0,Alto
JST,JST-RAW-153827561-23,2023-12-28T14:00:00,2023-12-28,1400,,,Villa Rumipal,Cordoba,Ascenso inicial,"Accidente | SCF-PP (Powerplant failure or malfunction) | Non-Commercial Operations / Pleasure / Local | Villa Rumipal, Cordoba",SCF-PP (Powerplant failure or malfunction),Tecnico,,LV-FQS,,,,,,-32.168,-64.496,0,0,Alto
JST,JST-RAW-00404649-24,2023-12-30T11:40:00,2023-12-30,1140,,,Chascomus,Buenos Aires,Ascenso inicial,"Accidente | SCF-PP (Powerplant failure or malfunction) | Non-Commercial Operations / Flight Training/Instructional / Solo (supervised) | Chascomus, Buenos Aires",SCF-PP (Powerplant failure or malfunction),Tecnico,,LV-GSL,,,,,,-35.536,-58.063,0,0,Alto
JST,JST-RAW-02351754-24,2024-01-06T01:00:00,2024-01-06,0100,,,Río Cuarto - (SAOC),Cordoba,Ascenso inicial,"Incidente | WILD (Collision Wildlife), BIRD (Birdstrike) | Commercial Air Transport / Scheduled / Airline (domestic) | Río Cuarto - (SAOC), Cordoba","WILD (Collision Wildlife), BIRD (Birdstrike)",Fauna,,LV-CHQ,,,,,,-33.092,-64.269,0,0,Alto
JST,JST-RAW-2048401-24,2024-01-06T01:28:00,2024-01-06,0128,,,Astor Piazolla (SAZM - MDQ),Buenos Aires,Aterrizaje,"Accidente | ARC (Abnormal runway contact) | Commercial Air Transport / Scheduled / Airline (domestic) | Astor Piazolla (SAZM - MDQ), Buenos Aires",ARC (Abnormal runway contact),Pista,,LV-KJE,,,,,,-37.934,-57.573,0,0,Alto
JST,JST-RAW-3355492-24,2024-01-10T12:55:00,2024-01-10,1255,,,Ezpeleta,Buenos Aires,Aterrizaje,"Accidente | ARC (Abnormal runway contact), LOC-I (Loss of control - inflight) | Non-Commercial Operations / Flight Training/Instructional / Other | Ezpeleta, Buenos Aires","ARC (Abnormal runway contact), LOC-I (Loss of control - inflight)",Pista,,LV-CUR,,,,,,-34.743,-58.203,0,0,Critico
JST,JST-ESPERANZA-20240719,2024-07-19T16:10:00,2024-07-19,1610,SAAV,Sauce Viejo,Esperanza,Santa Fe,Maniobra a baja altura,Accidente de aeronave Sonerai II LS durante vuelo recreativo con maniobra acrobatica a baja altura e impacto contra el terreno.,Impacto contra el terreno,Operacion,Sonerai II LS,LV-X393,Experimental,VMC,Dia,10.0,6.0,-31.7117,-60.8117,0,2,Critico
JST,JST-SADF-20241218,2024-12-18T13:18:00,2024-12-18,1318,SADF,San Fernando,San Fernando,Buenos Aires,Aterrizaje,Accidente de la aeronave Bombardier Challenger 300 en el Aeropuerto Internacional de San Fernando durante la fase final del vuelo.,Accidente en aterrizaje,Operacion,Bombardier Challenger 300,LV-GOK,Ejecutiva,VMC,Dia,10.0,8.0,-34.4539,-58.5896,0,2,Critico
JST,MEDIA-AEP-EZE-20260216,2026-02-16T17:20:00,2026-02-16,1720,SABE,Aeroparque Jorge Newbery,Ciudad de Buenos Aires,CABA,Ascenso inicial,Vuelo comercial que despego de Aeroparque y debio desviarse a Ezeiza por un desperfecto en un motor poco despues del despegue.,Falla de motor,Operacion,B737-800,,Comercial,VMC,Dia,10.0,12.0,-34.5592,-58.4156,0,0,Alto
JST,MEDIA-SAZR-20260301,2026-03-01T14:25:00,2026-03-01,1425,SAZR,Santa Rosa,Santa Rosa,La Pampa,Aterrizaje,La aeronave se desvio lateralmente durante la carrera de aterrizaje en pista humeda y requirio intervencion operativa.,Excursion de pista,Pista,B737-800,LV-FPS,Comercial,Lluvia,Dia,5.0,18.0,-36.5883,-64.2757,0,0,Alto
JST,MEDIA-AEP-EZE-20260312,2026-03-12T17:20:00,2026-03-12,1720,SABE,Aeroparque Jorge Newbery,Ciudad de Buenos Aires,CABA,Ascenso inicial,Aeronave de Aerolineas Argentinas debio aterrizar de emergencia en Ezeiza tras impacto o desperfecto detectado en un motor luego de despegar desde Aeroparque.,Impacto en motor,Fauna,B737-800,,Comercial,VMC,Dia,10.0,14.0,-34.5592,-58.4156,0,0,Alto
